,City,Country,Max Temp,Lat,Lng,Hotel Name
0,Ushuaia,AR,40.66,-54.8,-68.3,Albatross Hotel
1,Hilo,US,79.29,19.7297,-155.09,Hilo Hawaiian Hotel
2,Punta Arenas,CL,39.31,-53.15,-70.9167,Hotel Hain
3,Faya,SA,68.52,18.3851,42.4509,املاك خالد الشعشوع
4,Port Hardy,CA,60.98,50.6996,-127.4199,Airport Inn-Port Hardy
5,Chuy,UY,61.45,-33.6971,-53.4616,Nuevo Hotel Plaza
6,Busselton,AU,65.01,-33.65,115.3333,Observatory Guest House
7,Herat,AF,87.82,34.5,62.0,
8,Coihaique,CL,39.15,-45.5752,-72.0662,Diego De Almagro Coyhaique
9,Naze,JP,86.92,28.3667,129.4833,Shishime Hotel
10,Mahebourg,MU,74.25,-20.4081,57.7,Shandrani Beachcomber Resort & Spa
11,Yellowknife,CA,63.12,62.456,-114.3525,The Explorer Hotel
12,Dikson,RU,40.68,73.5069,80.5464,
13,Hithadhoo,MV,82.99,-0.6,73.0833,Scoop Guest House
14,Iqaluit,CA,46.13,63.7506,-68.5145,Frobisher Inn
15,Lavrentiya,RU,41.45,65.5833,-171.0,
16,Mataura,NZ,47.48,-46.1927,168.8643,Ellie's Villa
17,Hermanus,ZA,52.81,-34.4187,19.2345,Misty Waves Boutique Hotel
18,Sao Filipe,CV,78.15,14.8961,-24.4956,Hotel Xaguate
19,Thompson,CA,57.36,55.7435,-97.8558,Burntwood Hotel
20,Carnarvon,AU,75.18,-24.8667,113.6333,Hospitality Carnarvon
21,Atambua,ID,82.13,-9.1061,124.8925,Kost Alfa Flat
22,San Quintin,MX,67.14,30.4833,-115.95,Don Eddie's Sport Fishing Center
23,Mao,ES,72.16,39.8885,4.2658,ARTIEM Capri
24,Neiafu,TO,77.68,-18.65,-173.9833,Mystic Sands Beachfront Accommodation
26,Beringovskiy,RU,51.08,63.05,179.3167,
27,Cayenne,GF,75.09,4.9333,-52.3333,Hôtel Le Dronmi
28,Hobart,AU,53.26,-42.8794,147.3294,St Ives Hobart Accommodation Tasmania
29,Alihe,CN,68.58,50.5667,123.7167,Alihe Forestry Hotel
30,Pisco,PE,60.85,-13.7,-76.2167,Hotel San Isidro Oficial
31,Aksarka,RU,71.58,66.5606,67.7975,
32,Lensk,RU,92.52,60.7253,114.9278,ТинОрС
33,Cape Town,ZA,59.38,-33.9258,18.4232,"Radisson Blu Hotel Waterfront, Cape Town"
34,Kearney,US,72.16,40.6995,-99.0815,"Holiday Inn Kearney, an IHG Hotel"
35,Arraial Do Cabo,BR,69.17,-22.9661,-42.0278,Pousada Porto Praia
36,Avarua,CK,75.25,-21.2078,-159.775,Paradise Inn
37,Gandhinagar,IN,87.78,23.2167,72.6833,Hotel Vrundavan
38,Biritiba-Mirim,BR,56.98,-23.5698,-46.0407,RECANTO SPLENDORE
39,Albany,US,68.45,42.6001,-73.9662,
40,Rikitea,PF,74.1,-23.1203,-134.9692,People ThankYou
41,Castro,BR,56.43,-24.7911,-50.0119,
42,Abbeville,FR,57.49,50.1,1.8333,Hôtel Mercure Abbeville Centre - Porte de la Baie de Somme
43,Pevek,RU,36.79,69.7008,170.3133,Severnoye Zoloto
44,Broome,US,72.57,42.2506,-75.833,Chenango Valley State Park
45,Lorengau,PG,83.82,-2.0226,147.2712,Lorengau Harbourside Hotel
46,Beroroha,MG,67.6,-21.6667,45.1667,
47,Edd,ER,92.52,13.9297,41.6925,
48,Sakete,BJ,72.52,6.7362,2.6587,IBUKUN OLUWA
49,Ilinskiy,RU,75.54,55.619,38.1182,Around the world
50,Kapaa,US,82.38,22.0752,-159.319,Sheraton Kauai Coconut Beach Resort
51,Carutapera,BR,74.61,-1.195,-46.02,Lidera
52,Dunedin,NZ,45.81,-45.8742,170.5036,Scenic Hotel Southern Cross
53,Georgetown,MY,89.53,5.4112,100.3354,Cititel Penang
54,Laukaa,RU,60.06,58.7372,29.8453,U Lysoy Gory Hotel
55,Tiksi,RU,72.81,71.6872,128.8694,Arktika
56,Pangnirtung,CA,53.08,66.1451,-65.7125,Kilabuk Lodge
57,Mount Gambier,AU,49.91,-37.8333,140.7667,The Commodore
58,Bilma,NE,82.94,18.6853,12.9164,Expeditions Ténére voyages
59,Saint-Philippe,RE,73.22,-21.3585,55.7679,Le four à pain
60,Baykit,RU,69.57,61.67,96.37,
61,Mattru,SL,71.26,7.6244,-11.8332,"Mondkor Town, Bagbo Chiefdom, Bo District"
62,Darhan,MN,56.03,49.4867,105.9228,Buudai Hotel
63,Kirovskiy,RU,87.48,45.0917,133.5136,"Uyut, Gostinitsa"
64,Port Alfred,ZA,58.17,-33.5906,26.891,The Halyards Hotel
65,Dudinka,RU,61.63,69.4058,86.1778,Hotel Viktoria
66,Klaksvik,FO,52.72,62.2266,-6.589,Airbnb rooms
67,Panaba,MX,75.6,21.2833,-88.2667,Hotel Don Fernando
68,Kodiak,US,56.71,57.79,-152.4072,Best Western Kodiak Inn
69,Lincoln,US,77.02,40.8,-96.667,Courtyard by Marriott Lincoln Downtown/Haymarket
70,Narsaq,GL,46.62,60.9167,-46.05,Sleep In Narsaq
71,Butaritari,KI,82.0,3.0707,172.7902,Isles Sunset Lodge
72,Saldanha,ZA,41.05,-33.0117,17.9442,Blue Bay Lodge
73,Raudeberg,NO,49.96,61.9875,5.1352,Nordre Silda.
74,Qaanaaq,GL,35.87,77.484,-69.3632,Qaanaaq Hotel
75,Poceirao,PT,68.25,38.831,-8.7937,Fonte de Lobos
76,Torbay,CA,62.58,47.6666,-52.7314,Gallows Cove
77,Pacific Grove,US,60.48,36.6177,-121.9166,Lovers Point Inn
78,Cidreira,BR,61.07,-30.1811,-50.2056,Hotel Castelo
79,Atuona,PF,77.47,-9.8,-139.0333,Villa Enata
80,Peruc,CZ,58.62,50.3425,13.9599,Kemp Peruc
81,Gubkinskiy,RU,65.21,64.434,76.5026,MonarcH
82,Nome,US,52.16,64.5011,-165.4064,Dredge 7 Inn
83,Mahon,ES,72.16,39.8885,4.2658,ARTIEM Capri
84,Salym,RU,65.86,60.0625,71.4789,Gostinitsa Salym
85,Barrow,US,33.82,71.2906,-156.7887,King Eider Inn
87,Rio Gallegos,AR,32.05,-51.6226,-69.2181,Hotel Santa Cruz
88,Yarada,IN,89.92,17.65,83.2667,Yarada Jungle Beach Resorts
89,Tuatapere,NZ,44.6,-46.1333,167.6833,Ron and Tony's Bed & Breakfast
90,Vestmannaeyjar,IS,51.31,63.4427,-20.2734,Glamping & Camping
91,Uspenka,UA,77.38,48.3903,39.1619,"Санаторий-профилакторий ""Парус"""
92,Esperance,AU,67.55,-33.8667,121.9,Hospitality Esperance
93,Roald,NO,52.0,62.5833,6.1333,Flem Cabins
94,Salinas,US,64.0,36.6777,-121.6555,Laurel Inn & Conference Center
95,Quito,EC,47.35,-0.2299,-78.5249,Hotel Boutique Plaza Sucre
96,Kaeo,NZ,58.32,-35.1,173.7833,Bushido Lodge
97,Vaini,TO,75.36,-21.2,-175.2,Keleti Beach Resort
98,Port Elizabeth,ZA,59.29,-33.918,25.5701,39 On Nile Guest House
99,Suna,RU,65.68,57.8338,50.0588,Gostinitsa Mirazh
100,East London,ZA,61.74,-33.0153,27.9116,Tu Casa
101,Zunyi,CN,79.92,27.6867,106.9072,
102,Sola,VU,80.17,-13.8833,167.55,Leumerus Bungalows
103,Praia Da Vitoria,PT,72.75,38.7333,-27.0667,Hotel Branco I
104,Xichang,CN,80.85,27.8964,102.2634,Xichang ibis Hotel
105,Tuktoyaktuk,CA,46.4,69.4541,-133.0374,End of The Road Ltd.
106,Saint George,US,73.99,37.1041,-113.5841,Best Western Plus Abbey Inn
107,Namioka,JP,84.42,40.7072,140.5894,Restaurant & INN Sunrise
108,Saint-Leu,RE,72.68,-21.15,55.2833,La Caz Oceane
109,Aklavik,CA,49.96,68.2191,-135.0107,Aklavik Inn
110,Nikolskoye,RU,63.88,59.7035,30.7861,Tourist House - Sablino
111,Kota Kinabalu,MY,87.78,5.9749,116.0724,Gaya Centre Hotel
112,Colares,PT,68.29,38.7992,-9.4469,Arribas Sintra Hotel
113,Bluff,NZ,47.8,-46.6,168.3333,Bluff Homestead - Guesthouse & Campervan Park
114,Airai,TL,71.29,-8.9266,125.4092,
115,Kaitangata,NZ,44.78,-46.2817,169.8464,Kaitangata Motor Camp
116,Tasiilaq,GL,42.96,65.6145,-37.6368,The Red House
117,Malanville,BJ,76.5,11.8685,3.3899,Hotel Sejour du Sahel
118,Kahului,US,80.62,20.8947,-156.47,Maui Seaside Hotel
119,Bredasdorp,ZA,47.43,-34.5322,20.0403,Bredasdorp Country Manor
120,Sitka,US,58.89,57.0531,-135.33,Westmark Sitka
121,Kavieng,PG,84.74,-2.5744,150.7967,Nusa Island Retreat
122,Juneau,US,60.8,58.3019,-134.4197,"Baranof Downtown, BW Signature Collection"
123,Cherskiy,RU,55.96,68.75,161.3,Gostinitsa
124,Bonfim,BR,73.71,3.0833,-59.95,
125,New Norfolk,AU,52.92,-42.7826,147.0587,The Shingles Riverside Cottages
126,Kazachka,RU,72.12,53.3644,38.0694,
127,Margate,GB,62.91,51.3813,1.3862,Premier Inn Margate hotel
128,Erdaojiang,CN,86.38,41.7764,126.0319,Tonggang Hotel
129,Souillac,MU,73.78,-20.5167,57.5167,Shanti Maurice Resort & Spa
130,Alofi,NU,73.29,-19.0595,-169.9187,Taloa Heights
131,Xinxiang,CN,83.07,35.3089,113.8672,Guoyu Holiday Inn
132,Port Hedland,AU,82.45,-20.3167,118.5667,The Esplanade Hotel
133,Nakhon Thai,TH,91.24,17.1006,100.8374,อี๊ฟกะแอมป์รีสอร์ท EVEKAAMP Resort
134,Mayo,US,80.58,38.8876,-76.5119,Resorts Resource Group International
135,Chokurdakh,RU,62.46,70.6333,147.9167,
136,Vila Franca Do Campo,PT,76.19,37.7167,-25.4333,Pestana Bahia Praia
137,Manzhouli,CN,76.69,49.6,117.4333,Angala International Youth Hostel
138,Severnyy,RU,75.24,50.677,36.5532,Full House North Mini-Hotel
139,San Patricio,US,85.89,28.017,-97.5169,"Motel 6 Sinton, TX"
140,Yumen,CN,91.0,40.2833,97.2,
141,Ballina,AU,69.01,-28.8667,153.5667,Ramada Hotel & Suites by Wyndham Ballina Byron
142,Constitucion,CL,47.93,-35.3333,-72.4167,Hotel Boutique Las Azucenas
143,Gamba,GA,68.34,-2.65,10.0,
144,Nouadhibou,MR,73.38,20.931,-17.0347,El Medina
145,Puerto Ayora,EC,67.55,-0.7393,-90.3518,Finch Bay Galapagos Hotel
146,Ponta Do Sol,PT,72.23,32.6667,-17.1,Hotel do Campo
147,Danilov,RU,69.39,58.1908,40.1717,Sot'.
148,Terney,RU,71.92,45.0503,136.6092,"Hotel ""Ternay"""
150,Anadyr,RU,50.5,64.75,177.4833,Отке17.ру — жильё для командированных
151,Maceio,BR,72.84,-9.6658,-35.7353,Hotel Ponta Verde Maceió
152,Copperas Cove,US,85.68,31.1241,-97.9031,Super 8 by Wyndham Copperas Cove
153,Pizarro,CO,74.89,4.9533,-77.366,Hotel Limonar
154,Buta,CD,68.83,2.7858,24.73,Hôtel BOPANDO
155,Lebu,CL,48.29,-37.6167,-73.65,Hostal Las Lilas
156,Saint-Augustin,CA,54.32,51.226,-58.6502,
157,Longyearbyen,SJ,42.64,78.2186,15.6401,"Radisson Blu Polar Hotel, Spitsbergen"
158,Saint-Michel-Des-Saints,CA,59.94,46.6834,-73.9159,Motel Du Mont trinity
160,Mar Del Plata,AR,50.09,-38.0023,-57.5575,Gran Hotel Mar del Plata
161,Great Bend,US,79.03,38.3645,-98.7648,Best Western Angus Inn
162,Asfi,MA,67.66,32.2994,-9.2372,Hôtel Abda
163,Berdigestyakh,RU,87.06,62.0989,126.6992,
164,Gibara,CU,78.12,21.1097,-76.1317,Sol y Mar
165,Tecoanapa,MX,77.13,16.5167,-98.75,Hotel Manglares
166,Thinadhoo,MV,83.44,0.5333,72.9333,
167,Kemijarvi,FI,52.81,66.7131,27.4306,Hotelli Kemijärvi
168,Srednekolymsk,RU,59.67,67.45,153.6833,
169,Talcahuano,CL,46.08,-36.7167,-73.1167,departamento comodo
170,Komsomolskiy,UZ,93.92,40.4272,71.7189,Ikathouse
171,Nova Olimpia,BR,69.39,-14.7972,-57.2881,Motel glamour
172,Quebec,CA,66.54,46.8123,-71.2145,Hilton Quebec
173,Huilong,CN,87.06,31.8111,121.655,Hilton Garden Inn Qidong
174,Jizan,SA,88.74,17.3333,42.6667,شهدان. ابوالحجر
175,Zhigansk,RU,79.9,66.7697,123.3711,Gostinichnyy Kompleks Aylgy
176,Talnakh,RU,61.21,69.4865,88.3972,Talnakh Hotel
177,Port Hueneme,US,71.51,34.1478,-119.1951,Hampton Inn Channel Islands Harbor
178,Flinders,AU,66.38,-34.5833,150.8552,Shellharbour Resort & Conference Centre
179,Sabha,LY,79.2,27.0377,14.4283,محطة ام الارانب -سبها مواصلات
180,Coahuayana,MX,77.22,18.7333,-103.6833,El rranchito michuacan de ocampos
181,Port Blair,IN,86.04,11.6667,92.75,"Welcomhotel By ITC Hotels, Bay Island, Port Blair"
182,Norman Wells,CA,60.84,65.282,-126.8329,Heritage Hotel
183,Isangel,VU,75.76,-19.55,169.2667,
184,Podgorica,ME,74.98,42.4411,19.2636,Hotel Podgorica
185,Dukat,RU,57.9,62.55,155.55,
186,Zhucheng,CN,87.62,35.9947,119.3975,Fanrong Hotel
187,Maldonado,UY,56.23,-34.6667,-54.9167,La Cimarrona
188,Tynda,RU,73.33,55.1667,124.7167,"Gostinitsa ""Tayezhnaya"""
189,Wanning,CN,90.21,18.8003,110.3967,Paradise Hotel
190,Quatre Cocos,MU,74.08,-20.2078,57.7625,Sunrise Attitude Hotel
191,Katsuura,JP,83.39,35.1333,140.3,Katsuura Hotel Mikazuki
192,Ilulissat,GL,41.02,69.2167,-51.1,Hotel Arctic
193,Quelimane,MZ,62.67,-17.8786,36.8883,Hotel Flamingo
194,Mirpur Khas,PK,89.01,25.5251,69.0159,Hotel Al-Fajar
195,Khatanga,RU,73.65,71.9667,102.5,"""Khatanga"""
196,Deputatskiy,RU,64.78,69.3,139.9,Baza Otdykha
197,Campos,BR,62.26,-21.75,-41.3,Palace Hotel - Campos dos Goytacazes
198,Hudiksvall,SE,53.42,61.729,17.1036,Best Western Hotell Hudik
199,Troisvierges,LU,54.99,50.1211,6.0003,Hôtel-Restaurant Lamy
200,Lompoc,US,61.02,34.6391,-120.4579,"Holiday Inn Express Lompoc, an IHG Hotel"
201,Grindavik,IS,48.15,63.8424,-22.4338,Northern Light Inn & Max's Restaurant
202,Cabo San Lucas,MX,84.51,22.8909,-109.9124,Hotel Tesoro Los Cabos
203,Bontang,ID,80.02,0.1333,117.5,KOPKAR Hotel Bintang Sintuk
204,San Antonio Del Tachira,VE,71.78,7.8145,-72.4431,Hotel Villas de San Diego
205,Ahipara,NZ,56.64,-35.1667,173.1667,Ahipara Holiday Park
206,Havoysund,NO,48.43,70.9963,24.6622,Arctic View Glamping & Restaurant
207,Abu Samrah,SY,83.08,35.3029,37.1841,
208,Los Llanos De Aridane,ES,69.12,28.6585,-17.9182,Valle Aridane
209,Ancud,CL,42.67,-41.8697,-73.8203,Hotel Arena Gruesa
210,Mangaratiba,BR,63.46,-22.9597,-44.0406,Portobello Resort & Safari
211,Egvekinot,RU,39.7,66.3167,-179.1667,
212,Amambai,BR,66.34,-23.1042,-55.2258,Keren Hotel
213,Newcastle,AU,68.09,-32.9272,151.7765,NOAH'S on the beach
214,Mayumba,GA,68.13,-3.432,10.6554,LIKWALE LODGE
215,Lagoa,PT,71.04,39.05,-27.9833,Casa Das Faias
216,Tautira,PF,77.38,-17.7333,-149.15,
217,Vestmanna,FO,50.92,62.1564,-7.1664,Vestmanna Camping
219,Kudahuvadhoo,MV,82.63,2.6708,72.8944,Niyama Private Islands Maldives
220,Broken Hill,AU,60.84,-31.95,141.4333,Royal Exchange Hotel
221,Gillette,US,62.94,44.2911,-105.5022,National 9 Inn - Gillette WY
222,Maumere,ID,82.69,-8.6199,122.2111,Sylvia Hotel
223,Charters Towers,AU,71.89,-20.1,146.2667,Cattleman's Rest Motor Inn
224,Jamestown,US,71.24,42.097,-79.2353,Hampton Inn & Suites Jamestown
225,Prado,BR,68.16,-17.3411,-39.2208,INN CORNER RIVER - PRADO - BAHIA - HOUSING AND HOTEL
226,Kpandae,GH,72.63,8.4689,-0.0113,Catholic Guest House
227,Westport,US,75.49,41.1415,-73.3579,The Westport Inn
228,Aberdeen,GB,54.5,57.1437,-2.0981,Premier Inn Aberdeen City Centre hotel
229,Necochea,AR,49.12,-38.5473,-58.7368,dyd -mar Hotel
230,Abha,SA,68.25,18.2164,42.5053,Abha Hotel
231,Portland,US,82.8,45.5234,-122.6762,Embassy Suites by Hilton Portland Downtown
232,Chara,RU,76.32,56.9064,118.2631,
233,Gari,RU,69.1,59.4307,62.3497,
234,Nelson Bay,AU,64.45,-32.7167,152.15,Mantra Nelson Bay
235,Fairbanks,US,61.61,64.8378,-147.7164,Westmark Fairbanks Hotel & Conference Center
236,Princeton,US,84.0,25.5384,-80.4089,American Best Inn
237,Corinto,GR,88.9,37.9407,22.9573,Ephira Hotel
238,San Francisco,US,66.76,37.7749,-122.4194,Edwardian Hotel
239,Qazvin,IR,82.02,36.2797,50.0049,
240,Chapais,CA,64.18,49.7834,-74.8492,Hôtel Opémiska
241,Presidente Medici,BR,71.35,-11.1753,-61.9014,Oliveira Palace Hotel
242,Cozumel,MX,80.67,20.5083,-86.9458,
243,Cabedelo,BR,70.47,-6.9811,-34.8339,Pousada Camboinha
244,Nicolas Bravo,MX,72.95,18.45,-88.9167,
245,Sakakah,SA,90.97,29.9697,40.2064,Fakhamat Al Orjoana Apartment
246,Ribeira Grande,PT,72.16,38.5167,-28.7,Quinta da Meia Eira
247,Necocli,CO,74.97,8.4234,-76.786,Hotel Boutique El Turista
248,Caravelas,BR,67.03,-17.7125,-39.2481,Pousada dos Navegantes
249,Nalut,LY,78.66,30.3333,10.85,
250,Kavaratti,IN,79.57,10.5669,72.642,Green leaf
251,Kruisfontein,ZA,51.94,-34.0033,24.7314,Oyster Bay House Rental
252,Fort-Shevchenko,KZ,76.32,44.5086,50.263,Oasis hotel Bautino
253,Provideniya,RU,44.71,64.3833,-173.3,
254,Hasaki,JP,91.8,35.7333,140.8333,Inubosaki Kanko Hotel
255,Kununurra,AU,82.38,-15.7667,128.7333,Hotel Kununurra
256,Wajima,JP,86.68,37.4,136.9,Wajiima Onsen Yashio
257,Piazza Armerina,IT,76.55,37.3859,14.3672,Park Hotel Paradiso
258,Itacarambi,BR,62.29,-15.1022,-44.0919,POUSADA CAMALEÃO
259,Old Town,CZ,60.28,50.087,14.4202,Botanique Hotel Prague
260,Ocos,GT,75.38,14.5094,-92.1933,Auto Hotel El Soñador
261,Aswan,EG,89.49,24.0934,32.907,Nuba Nile
262,Severo-Kurilsk,RU,54.9,50.6789,156.125,Kak Doma
263,Culaman,PH,84.25,5.9603,125.6586,Jasmin Ex House
264,Kutum,SD,72.68,14.2,24.6667,Dibbo areaمنطقة دبو
265,Uruguaiana,BR,67.93,-29.7547,-57.0883,Fares Turis Hotel
266,Nemuro,JP,65.01,43.3236,145.575,Hotel Nemuro Kaiyoutei
267,Erzurum,TR,60.48,40.0,41.5,Saksi Koyu Muhtarligi
268,Nanortalik,GL,42.13,60.1432,-45.2371,Hotel Kap Farvel
269,Shetpe,KZ,77.04,44.1667,52.1167,Rtsm Shetpe Analog
270,Tura,IN,82.4,25.5198,90.2201,Hotel RIKMAN Continental
271,Namibe,AO,60.76,-15.1961,12.1522,Hotel Chik Chik Namibe
272,Camana,PE,59.32,-16.6228,-72.7111,Hostal Morales
273,Kolokani,ML,75.24,13.5728,-8.0339,Lycee Famolo Coulibalibali De Kolokani
274,Trelew,AR,39.15,-43.249,-65.3051,Hotel Touring Club
275,Lisala,CD,70.0,2.15,21.5167,Guest house Eden
276,Rioja,AR,52.05,-29.4111,-66.8507,Hotel Libertador
277,Gazanjyk,TM,91.83,39.2446,55.5154,Railway motel
278,Abu Kamal,SY,92.53,34.4506,40.9171,البوكمال
279,Sergeyevka,KZ,63.36,53.88,67.4158,Amina
280,Harper,LR,75.02,4.375,-7.7169,Screensaver
281,Mandalgovi,MN,77.4,45.7625,106.2708,В.Ганбат
282,Benguela,AO,66.58,-12.5763,13.4055,Hotel Praia Morena
283,Upernavik,GL,40.35,72.7868,-56.1549,Café de Upernavik
284,Sorland,NO,49.86,67.667,12.6934,Sjybrygga fiskecamp
285,Loandjili,CG,68.11,-4.7561,11.8578,Résidence ARCHANGE
286,Luziania,BR,55.09,-16.2525,-47.9503,HOTEL SARON
287,Khani,GE,63.97,41.9563,42.9566,კურორტი ზეკარი/Resort Zekari
288,Guerrero Negro,MX,68.27,27.9769,-114.0611,"Casa Laguna, Bed & Breakfast"
289,Geraldton,AU,72.01,-28.7667,114.6,Broadwater Mariner Resort
290,Nizhnevartovsk,RU,66.22,60.9344,76.5531,Luch
291,Coquimbo,CL,51.53,-29.9533,-71.3436,Hotel San Juan
292,Nabire,ID,83.26,-3.3667,135.4833,Hotel Nusantara I
293,Manzanillo,CU,75.88,20.3433,-77.1167,"HOSTAL ""THE YELLOW HOUSE"""
294,Akcakoca,TR,72.81,41.0866,31.1162,Turkuaz Beach Otel
295,Excelsior Springs,US,77.88,39.3392,-94.2261,The Elms Hotel & Spa
296,Husavik,IS,51.96,66.0449,-17.3389,Bjarnabúð
297,Bengkulu,ID,85.37,-3.8004,102.2655,Grage Hotel Bengkulu
298,Clyde River,CA,37.63,70.4692,-68.5914,Qamaq Hotel
299,Paamiut,GL,42.64,61.994,-49.6678,Pistut
300,Mandan,US,62.58,46.8267,-100.8896,Twin City Estates
301,Maple Creek,CA,66.61,49.9168,-109.4848,Willowbend Campground & Cabins
302,Half Moon Bay,US,64.81,37.4636,-122.4286,
303,Pindushi,RU,63.34,62.9152,34.58,Solnechnyy
304,Dalvik,IS,51.73,65.9702,-18.5286,Dalvík Hostel
305,Kenai,US,68.09,60.5544,-151.2583,Aspen Extended Stay Suites
306,Mitsamiouli,KM,79.09,-11.3847,43.2844,Foyer ADM
307,Pitimbu,BR,70.39,-7.4706,-34.8086,Reserva do Abiaí
308,Inirida,CO,72.54,3.8653,-67.9239,Fuente del Guania Hotel de Lujo
309,Luwuk,ID,81.9,-0.9516,122.7875,
310,Champagnole,FR,63.48,46.7445,5.9135,
311,Heihe,CN,77.58,50.2441,127.4902,Hotel Strannik
312,Yaan,NG,70.27,7.3833,8.5667,
313,Uyuni,BO,41.56,-20.4597,-66.825,Hostal La Magia de Uyuni
314,Fukue,JP,88.16,32.6881,128.8419,Goto Guesthouse Utojuku & SA Car Rental
315,Northam,GB,55.38,51.0333,-4.2167,Durrant House Hotel
316,Haines Junction,CA,51.75,60.7522,-137.5108,Parkside Inn
317,Basco,PH,86.23,20.4487,121.9702,Nathaniel's Lodge
319,Biak,ID,79.18,-0.9131,122.8766,Penginapan Kim
320,Porto Novo,BJ,75.54,6.4965,2.6036,Tour Eiffel Hotel Benin
321,Saskylakh,RU,76.01,71.9167,114.0833,
322,Taltal,CL,58.55,-25.4,-70.4833,Residencial Karime
323,Talara,PE,63.88,-4.5772,-81.2719,Hostal Oro Negro
324,Ulladulla,AU,57.22,-35.35,150.4667,Sandpiper Motel
325,Shahreza,IR,81.9,32.0339,51.8794,
326,Ormara,PK,82.98,25.2088,64.6357,Kenara Colony House for Rent
327,Lubango,AO,57.06,-14.9172,13.4925,
329,Kourou,GF,75.11,5.1552,-52.6478,Lodge TAKINI4 Guesthouse KOUROU FGU
330,Teahupoo,PF,71.56,-17.8333,-149.2667,Vanira Lodge
331,Bambous Virieux,MU,74.21,-20.3428,57.7575,
332,Gigmoto,PH,88.11,13.7796,124.39,Cj's Travellers Inn
333,Pajan,EC,69.53,-1.5667,-80.4167,Cecadel
334,Myrtle Beach,US,81.09,33.6891,-78.8867,Bay View Resort Myrtle Beach
335,Kiunga,PG,80.35,-6.1219,141.2906,Airport Lodge Kiunga
336,Sfantu Gheorghe,RO,69.26,45.8667,25.7833,Hotel Park
337,Malaya Serdoba,RU,77.59,52.4661,44.9512,
338,Meulaboh,ID,85.01,4.1363,96.1285,Kost Pria
339,Tahe,CN,76.3,52.3333,124.7333,塔河宾馆
340,Bahia Blanca,AR,42.24,-38.7196,-62.2724,Hotel Argos
341,Anloga,GH,75.67,5.7947,0.8973,Pin Drop Hotel
342,Champerico,GT,78.42,14.3,-91.9167,"Hotel y restaurante ""El Diamante"""
343,Gornopravdinsk,RU,67.19,60.05,69.9,Hostel
344,Sumbe,AO,66.97,-11.2061,13.8437,Hotel Ritz Sumbe
345,Iroquois Falls,CA,58.19,48.7669,-80.6831,Auberge MacDonald Guest Inn
346,Itaituba,BR,77.16,-4.2761,-55.9836,Hotel Campos
347,Ryotsu,JP,81.48,38.0833,138.4333,Sadokamoko Onsen Kohanno Yado Yoshidaya
348,Kargat,RU,83.73,55.1956,80.2811,Kargat
349,Brae,GB,53.55,60.3964,-1.353,Busta House Hotel
350,Vila Velha,BR,64.94,-20.3297,-40.2925,Hotel Vitória Palace
351,Najran,SA,86.65,17.4924,44.1277,محمد هادي ال فطيح
352,Yalvac,TR,79.02,38.2956,31.1778,Yalvac Ogretmenevi
353,Saint Anthony,US,71.49,45.0205,-93.218,
354,Mackenzie,CA,70.02,55.2999,-123.1698,Hilton Shop
355,Jinxiang,CN,87.91,27.4327,120.6062,Wolong Village
356,La Ronge,CA,57.45,55.1001,-105.2842,Northland Motor Hotel
357,Konskie,PL,62.24,51.1917,20.4061,Agroturystyka Barycz - Domek Marcel
358,Mezhdurechensk,RU,78.28,53.6942,88.0603,Apartments Mezhdurechensk
359,Kasongo-Lunda,CD,66.25,-6.4667,16.8167,
360,Lodja,CD,75.04,-3.4833,23.4333,
361,Puerto Escondido,MX,76.84,15.85,-97.0667,Aldea del Bazar Hotel and Spa
362,Port Keats,AU,89.53,-14.25,129.55,TDC Village (Hundred Man Camp)
363,Hambantota,LK,82.74,6.1241,81.1185,Bungalow 63
364,Villarrica,PY,66.43,-25.75,-56.4333,Mansión Reljuv Tours SA
365,Igarka,RU,61.65,67.4667,86.5833,"Zapolyar'ye, Gostinitsa"
366,Erenhot,CN,90.88,43.6475,111.9767,Erenhot Rurouni Youth Hostel
367,Lasa,IT,63.48,46.6166,10.7002,Pension Feldgärtenhof
368,Mindelo,CV,78.35,16.8901,-24.9804,Hotel Gaudi
369,Sinnamary,GF,75.87,5.3833,-52.95,ALETHEIA Appartement Sinnamary
370,Pochutla,MX,76.82,15.7432,-96.4661,Hotel Posada San Jose
371,Bambari,CF,70.72,5.768,20.6757,Hotel-Restaurant BIBICH
372,Gunjur,GM,78.87,13.2019,-16.7339,Jallo Kurundingoto Eco Tourist Camp
373,San Policarpo,PH,88.81,12.1791,125.5072,Agapita M. Nicart
374,Lazo,RU,88.84,43.3817,133.9014,
375,Richards Bay,ZA,65.23,-28.783,32.0377,BON Hotel Waterfront Richards Bay
376,Presidencia Roque Saenz Pena,AR,72.54,-26.7852,-60.4388,Hotel Gualok
377,Vallenar,CL,58.41,-28.5708,-70.7581,
378,Tommot,RU,85.95,58.9564,126.2925,Gostinitsa Tommot
379,Adrar,MR,92.35,20.5022,-10.0711,
380,Sechura,PE,63.09,-5.5569,-80.8222,Hospedaje Costa Bella
381,Belyy Yar,RU,73.29,53.6039,91.3903,Pasportnyy Stol
382,Storforshei,NO,51.66,66.4043,14.5233,Campingplass Mo i Rana: Storli Camping
383,Labuhan,ID,87.4,-6.8844,112.2051,DoubleFAG
384,Channel-Port Aux Basques,CA,59.86,47.5702,-59.1367,St. Christopher's Hotel
385,Barda,AZ,78.08,40.3744,47.1267,Prins Motel Restoran
386,Hervey Bay,AU,65.7,-25.2986,152.8535,Shelly Bay Resort
387,Kharabali,RU,76.66,47.4196,47.2568,Baza Otdiha Fishing Life
388,Slave Lake,CA,69.78,55.2834,-114.769,Super 8 by Wyndham Slave Lake AB
389,Baghdad,IQ,93.11,33.3406,44.4009,Baghdad Hotel
390,Winneba,GH,74.03,5.3511,-0.6231,Windy Lodge & Beach Resort
391,Arona,ES,70.92,28.0996,-16.681,Paradise Court
392,Ladovskaya Balka,RU,72.57,45.6297,41.4023,
393,Alyangula,AU,77.0,-13.8483,136.4192,Groote Eylandt Lodge
394,Laje,BR,60.8,-10.1833,-40.9667,NN Pousada
395,Palmer,US,69.21,42.1584,-72.3287,Wedgewood Motel
396,Soyo,AO,69.28,-6.1349,12.3689,Hospedaria ndozi'ame
397,Gualan,GT,72.99,15.1333,-89.3667,Hotel Agua Viva
398,Immokalee,US,82.38,26.4187,-81.4173,Seminole Casino Hotel Immokalee
399,Camacha,PT,67.42,33.0833,-16.3333,Hotel Porto Santo & Spa
400,Tocopilla,CL,60.35,-22.092,-70.1979,Hotel Galvarino
401,Vila Do Maio,CV,77.79,15.1333,-23.2167,Hotel Marilu
402,Bathsheba,BB,81.21,13.2167,-59.5167,Atlantis Hotel
403,Oktyabrskiy,RU,70.84,54.4815,53.471,Гостиница Октябрьская
404,Prince Albert,CA,53.55,53.2001,-105.7677,"Holiday Inn Express & Suites Prince Albert, an IHG Hotel"
405,Kitami,JP,71.06,43.8031,143.8908,Toyoko INN Kitami Ekimae
406,Bubaque,GW,79.72,11.2833,-15.8333,"Casa Dora, Bubaque"
407,Hirara,JP,91.26,24.8,125.2833,Hotel Atoll Emerald Miyakojima
408,Xining,CN,75.79,36.6167,101.7667,Super Leisure Hotel
409,Zyryanka,RU,61.25,65.75,150.85,
410,Kigorobya,UG,70.27,1.6162,31.3089,Docs sports lounge
411,Pahrump,US,86.05,36.2083,-115.9839,Best Western Pahrump Oasis
412,Kilakarai,IN,86.07,9.2333,78.7833,Kilakarai Home Stays
413,Khujner,IN,79.93,23.7833,76.6,Farnichar shop
414,Torgau,DE,57.11,51.5667,13.0,Hotel-Pension zum Markt
415,Touros,BR,71.91,-5.1989,-35.4608,INN NEW HORIZON
416,Poum,NC,72.97,-20.2333,164.0167,
417,Peniche,PT,66.29,39.3558,-9.3811,Hotel Star inn Peniche
418,Yerbogachen,RU,79.63,61.2767,108.0108,
419,Wau,SS,72.68,7.7029,27.9953,Universal Gab Hotel
420,Bell Ville,AR,50.67,-32.6259,-62.6887,Hotel Central
421,San Isidro,PE,60.01,-12.1167,-77.05,Radisson Hotel Decapolis Miraflores
422,Lukovetskiy,RU,73.76,64.2956,41.9211,Provintsiya
423,Asheville,US,74.17,35.6009,-82.554,Four Points by Sheraton Asheville Downtown
424,Kaohsiung,TW,93.15,22.6163,120.3133,御宿商旅-中山館
425,Kieta,PG,83.48,-6.2167,155.6333,Uruna Bay Retreat
426,Ampanihy,MG,66.85,-24.7,44.75,Angora Hotel
427,Coruripe,BR,70.83,-10.1256,-36.1756,Pousada e Hotel Litoral Sul
428,Saint-Francois,FR,53.67,46.4154,3.9054,Manoir Du Bonheur
429,Dongsheng,CN,83.86,39.8161,109.9776,Crowne Plaza Ordos
430,Rawson,AR,40.3,-43.3002,-65.1023,Hosteria Sampedro
431,Maine-Soroa,NE,79.12,13.2114,12.0241,Complexe
432,Feicheng,CN,87.35,35.2606,117.9675,Royal Garden Hotel
433,Baruun-Urt,MN,75.92,46.6806,113.2792,Ахмадын амралт сувилал
434,Am Timan,TD,71.4,11.0297,20.2827,Palais du chef Canton Salamt
435,Trairi,BR,75.99,-3.2778,-39.2689,janelas do mar
436,Havelock,US,81.95,34.8791,-76.9013,Sherwood Motel
437,Cap Malheureux,MU,74.46,-19.9842,57.6142,Pereybere Hotel & Spa
438,Bethel,US,73.49,41.3712,-73.414,Courtyard by Marriott Danbury
439,Susice,CZ,66.97,49.2311,13.5202,Sport Hotel Pekarna
440,Hofn,IS,52.86,64.2539,-15.2082,Hótel Höfn
441,Flin Flon,CA,54.66,54.7682,-101.865,Victoria Inn Flin Flon
442,Celestun,MX,77.27,20.8667,-90.4,Posada Lilia
443,Koflach,AT,62.78,47.0667,15.0833,Hotel & Therme NOVA Köflach
444,Boguchany,RU,59.5,58.3814,97.4531,Uyut
445,Maryborough,AU,65.5,-25.5333,152.7,Blue Shades Motel
446,Shu,KZ,93.0,43.5983,73.7614,Shyngyzkhan
447,Omboue,GA,72.64,-1.5746,9.2618,Hotel Olako
448,San Cristobal,VE,66.38,7.7669,-72.225,Pirineos
449,Salalah,OM,77.09,17.0151,54.0924,"HAMDAN PLAZA HOTEL SALALAH, an HTG Hotel"
450,Calama,CL,43.29,-22.4667,-68.9333,Park Hotel Calama
451,Namtsy,RU,91.78,62.7161,129.6658,"""Эңсиэли Киин"""
452,Morros,BR,65.17,-9.4467,-46.3003,
453,Gao,ML,86.61,16.6362,1.637,
454,Beloha,MG,68.4,-25.1667,45.05,
455,Manado,ID,84.97,1.487,124.8455,Aryaduta Hotel
456,La Rioja,ES,53.38,42.25,-2.5,Casa Concejos
457,Miraflores,MX,58.03,19.2167,-98.8083,Hotel Mansión
458,Taunggyi,MM,82.78,20.7833,97.0333,True Treasure Hotel
459,Santa Marta,CO,80.65,11.2408,-74.199,Hotel La Ballena Azul
460,Labytnangi,RU,67.66,66.6572,66.4183,Priuralye Hotel
461,Iquitos,PE,71.64,-3.7481,-73.2472,Cortez Malaga Techy Caroly
462,Kidal,ML,87.78,18.4411,1.4078,
463,Katangli,RU,59.95,51.7102,143.2326,
464,Kaili,ID,72.36,-3.4626,120.2147,
465,Joshimath,IN,75.88,30.5667,79.5667,Shivalik Camps & Resort
466,Denpasar,ID,83.86,-8.65,115.2167,OYO 3156 Hotel Warta 2
467,Sazonovo,RU,63.25,59.0919,35.2268,Hotel Golden Scorpion
468,Along,IN,83.7,28.1667,94.7667,Hotel West
469,Gizo,SB,83.84,-8.103,156.8419,Imagination Island
470,Kassala,SD,78.33,15.451,36.4,Amassi Hotel Gash
471,Yairipok,IN,86.25,24.6667,94.0667,Ningthounai
472,Ayr,GB,51.78,55.4627,-4.6339,Mercure Ayr Hotel
473,Honiara,SB,83.59,-9.4333,159.95,Heritage Park Hotel
474,Qui Nhon,VN,86.67,13.7667,109.2333,Seagull Hotel
475,Kapit,MY,94.12,2.0167,112.9333,Hotel Meligai Kapit
476,Nambiyur,IN,87.39,11.3667,77.3333,City lodge A/C
477,Muli,MV,82.85,2.9167,73.5667,Medhufushi Island Resort
478,Monte Patria,CL,52.32,-30.6919,-70.9467,Hotel Monte Cordillera
479,Giovinazzo,IT,77.31,41.1864,16.6674,ibis Styles Bari Giovinazzo
480,Sterling,US,77.94,39.0062,-77.4286,Hampton Inn & Suites Washington-Dulles International Airport
481,Phuket,TH,90.09,8.0,98.25,The Surin
482,Beira,MZ,59.09,-19.8436,34.8389,Beira Terrace Hotel
483,Arvi,IN,87.53,20.9833,78.2333,Geet shirbhate
484,Rio Blanco,MX,63.1,18.8333,-97.15,HOTEL L'ORBE EN ORIZABA
485,Mangrol,IN,84.47,21.1167,70.1167,Hotel The Royal Honours
486,Nanakuli,US,82.35,21.3906,-158.1547,Camp Pālehua
487,Semey,KZ,89.82,50.4111,80.2275,Grand Hotel Semey
488,Montclair,US,78.35,40.8259,-74.209,Meeting Expectations
489,Kuusamo,FI,57.24,65.9667,29.1833,Hotel Kuusanka
490,Otradnoye,RU,68.88,59.7775,30.8181,Baza otdikha Petrushinsky Khutor
491,Alta Floresta,BR,65.59,-9.8756,-56.0861,Floresta Amazonica Hotel
492,Pingliang,CN,85.82,35.5392,106.6861,North Gate Hostel
493,Lalsot,IN,79.63,26.5667,76.3333,Sharma Hotel
494,Damavand,IR,82.87,35.7178,52.065,آپارتمان زمانیان
495,Ixtapa,MX,80.22,20.7,-105.2,hotel la terminal
496,Huarmey,PE,61.93,-10.0681,-78.1522,Hotel Miramar
497,Bria,CF,70.47,6.5423,21.9863,WFP Guesthouse
498,Colombo,LK,84.15,6.9319,79.8478,
499,Byron Bay,AU,65.71,-28.65,153.6167,Backpackers Inn
500,Bone,DE,59.83,51.9669,12.1396,Sporthotel Wallwitz
501,Fortuna,US,58.66,40.5982,-124.1573,Super 8 by Wyndham Fortuna
502,Grand Baie,MU,74.44,-20.0182,57.5802,Trou aux Biches Beachcomber Golf Resort & Spa
503,Nerchinsk,RU,73.89,51.9833,116.5833,Transbaikal N. Hotel
504,Shushenskoye,RU,74.79,53.325,91.9356,Turist
505,Sioux Lookout,CA,55.47,50.1001,-91.917,Knobby's Fly-In Camps
506,Avera,US,79.56,33.194,-82.5271,
507,Kloulklubed,PW,84.7,7.0419,134.2556,Storyboard Beach Resort
508,Faanui,PF,78.24,-16.4833,-151.75,Bora-Bora Pearl Beach Resort & Spa
509,Itarema,BR,76.98,-2.9248,-39.9167,"Sea Lounge! Bar, Club & Restaurant"
510,Comodoro Rivadavia,AR,44.46,-45.8667,-67.5,Austral Hotel
511,Axim,GH,75.36,4.8699,-2.2405,Axim Beach Resort And Spa
512,Mogocha,RU,71.13,53.7333,119.7667,Yalta Inn
513,Bodden Town,KY,82.92,19.2833,-81.25,Will T Place
514,Lac Du Bonnet,CA,51.21,50.2536,-96.0612,Drifter's Inn
515,Pop,UZ,88.29,40.8736,71.1089,Ramz Hotel Pap
516,Petropavlovsk-Kamchatskiy,RU,72.19,53.0452,158.6483,The Hotel Petropavlovsky
517,Aljezur,PT,62.17,37.3191,-8.8033,Amazigh Hostel
518,Karratha,AU,79.54,-20.7377,116.8463,ibis Styles Karratha
519,Kholm,RU,59.99,59.2667,32.85,
520,Lata,PT,56.43,40.1629,-8.3327,Casa Maquia
521,Lithakia,GR,78.17,37.7167,20.8333,Zante Plaza Hotel & Apartments
522,Tranas,SE,57.38,58.0372,14.9782,Badhotellet Spa & Konferens Hotel
523,Porangatu,BR,66.92,-13.4408,-49.1486,Wembley Park Hotel
524,Grand Gaube,MU,74.37,-20.0064,57.6608,Veranda Paul et Virginie Hotel & Spa
525,Zhangjiakou,CN,82.99,40.81,114.8794,Shell Zhangjiakou City Qiaodong District Ginza Hotel
526,Luangwa,ZM,66.43,-15.6167,30.4167,Gerasimos Safari Lodge
527,San Lorenzo,PY,65.59,-25.3333,-57.5333,Canarias Hotel
528,Tuy Hoa,VN,91.31,13.0833,109.3,CenDeluxe Hotel Tuy Hoa
529,Padang,ID,84.25,-0.9492,100.3543,Mercure Padang
530,Las Vegas,US,81.28,36.175,-115.1372,Plaza Hotel & Casino
531,Cockburn Town,TC,80.71,21.4612,-71.1419,Osprey Beach Hotel
532,San Jeronimo,PE,44.58,-11.9472,-75.2829,Tuki Llajta Pueblo Bonito Eco Lodge
533,Hauterive,FR,56.16,46.0901,3.4459,Aletti Palace Hotel
534,Eslov,SE,56.88,55.8393,13.3039,Stensson
535,Srandakan,ID,83.35,-7.9386,110.2506,Puri Brata
536,Udachnyy,RU,89.46,66.4167,112.4,Severnoye Siyaniye
537,Price,US,74.12,39.5994,-110.8107,National 9 - Price River Inn
538,Vaitape,PF,78.24,-16.5167,-151.75,Conrad Bora Bora Nui
539,Port Lincoln,AU,57.49,-34.7333,135.8667,Port Lincoln Hotel
540,Jeremie,HT,79.23,18.65,-74.1167,Auberge’Inn
541,Mweka,CD,72.45,-4.85,21.5667,Guest House Boshab
542,Antsohihy,MG,78.17,-14.8796,47.9875,Hotel de Ville
543,Kamyshevatskaya,RU,78.84,46.4132,37.9563,Gostevoy Dom Lotos-Lend
544,Mariel,CU,78.94,22.9875,-82.7536,Casa De Alojamiento Marilda
546,Saint-Pierre,RE,74.28,-21.3393,55.4781,Alize Plage
547,Svetlaya,RU,68.45,46.5389,138.3297,
548,Borogontsy,RU,89.78,62.6683,131.1683,
549,Nampa,US,86.29,43.5407,-116.5635,Nampa Downtown
550,San Jose,US,67.21,37.3394,-121.895,The Westin San Jose
552,Hamilton,US,74.88,39.1834,-84.5333,Six Acres Bed & Breakfast
553,Qeshm,IR,91.27,26.9581,56.2719,Qeshm Kavan Hotel
554,Hammerfest,NO,48.65,70.6634,23.6821,Skytterhuset
555,Pancas,BR,60.71,-19.225,-40.8514,Hotel Acácia
556,Codrington,AU,50.76,-38.2667,141.9667,Codrington Gardens Bed And Breakfast
557,Maniitsoq,GL,40.91,65.4167,-52.9,Hotel Heilmann Lyberth
558,Tezu,IN,84.9,27.9167,96.1667,Circuit House
559,Bonavista,CA,58.91,48.6499,-53.1147,Sweet Sharons bnb
560,Keningau,MY,87.62,5.3378,116.1602,Sabindo Hotel
562,Te Anau,NZ,41.41,-45.4167,167.7167,Kingsgate Hotel Te Anau
563,Paita,PE,62.82,-5.0892,-81.1144,Hotel Náutico de Paita
564,Ostrovnoy,RU,66.38,68.0531,39.5131,
565,Ngorongoro,TZ,51.1,-3.2397,35.4875,Simba Special Campsite B
566,Soskovo,RU,71.1,52.7475,35.3828,
567,Dongning,CN,86.14,44.0622,131.1207,Huayu Hotel
568,Krasnovishersk,RU,72.57,60.4078,57.082,Vishera hotel
569,Osypenko,UA,82.49,46.9136,36.8253,
570,Bam,IR,91.27,29.106,58.357,Bam Tourist Hotel
571,Wattegama,LK,88.63,6.7989,81.4808,
572,Nelson,NZ,55.29,-41.2833,173.2833,Trailways Hotel
573,Sao Borja,BR,66.94,-28.6606,-56.0044,Hotel Executivo
574,Arraias,BR,62.65,-12.9288,-46.9437,Hotel Japão
575,Awjilah,LY,84.76,29.1081,21.2869,المنزل
576,Klyuchi,RU,87.04,52.2667,79.1667,Vesolaya Mayovka
577,Providencia,MX,85.23,28.7167,-111.5833,
578,Islahiye,TR,89.19,37.025,36.6306,İslahiye Sabanci Teachers
579,Pangoa,PE,69.26,-12.1167,-73.0,
580,Bucerias,MX,80.98,20.75,-105.3333,Royal Decameron Complex - Puerto Vallarta
581,Shyryayeve,UA,76.59,47.3805,30.1964,
582,Esna,EG,93.76,25.2934,32.554,Orient Star Dahabyia Isna 05 Nights Each Sunday
583,Mana,GF,75.02,5.6592,-53.7767,LE SAMANA
584,Huescar,ES,66.11,37.811,-2.5412,Hotel El Maño
585,Baiquan,CN,72.52,47.5833,126.0833,Wenxin Home Leisure Express Hotel
586,Nenjiang,CN,69.91,49.1833,125.2167,Nenjiang Apartment
587,Pese,PA,75.79,7.9,-80.6167,Hotel Pesé
588,Vardo,NO,49.98,70.3705,31.1107,Vardø Hotel AS
589,Belmonte,BR,68.41,-15.8631,-38.8828,Pousada Monte Carmelo O Pão
590,Morondava,MG,70.25,-20.2833,44.2833,La Case Bambou
591,Sangar,RU,83.16,63.9242,127.4739,
592,Zeya,RU,76.69,53.75,127.2667,Kapital Inn
593,Hualmay,PE,60.85,-11.0964,-77.6139,Hotel Villa Kitzia Huacho
594,Capaci,IT,87.64,38.1711,13.2393,Hotel Sirenetta
595,Novi Iskar,BG,66.45,42.8,23.35,Hi-Life Family Hotel
596,Deep River,CA,59.7,46.1001,-77.4995,Deep River Motel
597,Khash,IR,81.16,28.2211,61.2158,خوابگاه آبجی محدثه
598,Miranda,CO,66.33,3.2499,-76.2281,unidiversidad organica la utopia
599,Bandarbeyla,SO,84.0,9.4942,50.8122,JABIR HOTEL
600,Waipawa,NZ,48.74,-41.4122,175.5153,Tora Coastal Walk
601,Monrovia,LR,75.11,6.3005,-10.7969,Sunset Inn
602,Lokosovo,RU,66.72,61.1333,74.8167,
603,Lae,PG,86.67,-6.7221,146.9847,Phils Hotel
604,Riverton,US,82.31,40.5219,-111.9391,Ramada by Wyndham Draper
605,Damietta,EG,82.6,31.4165,31.8133,SULIMAN INN
606,Bennington,US,66.78,42.8781,-73.1968,Best Western Bennington
607,Kirensk,RU,68.47,57.7853,108.1119,Kirenskiy Plos
608,Goure,NE,75.02,13.9835,10.2704,
609,Troitsko-Pechorsk,RU,73.09,62.7084,56.1964,Pechora Gostinitsa
610,Petropavlovka,RU,69.46,50.6114,105.3196,Tuyaa
611,Mouzouras,GR,78.8,35.5333,24.15,Areti Suites
612,Maruko,JP,86.31,36.3167,138.2667,ミノワ・リバーサイドオートキャンプ
613,Karatau,KZ,90.21,43.1667,70.4667,Baza Zika
614,Moramanga,MG,63.75,-18.9333,48.2,Espace VANILLA
615,Altamira,BR,72.64,-3.2033,-52.2064,Requinte Hotel
616,Berlevag,NO,49.95,70.8578,29.0864,Kvitbrakka
617,Killybegs,IE,53.65,54.6333,-8.45,Tara Hotel
618,Shizunai,JP,74.12,42.3339,142.3669,Shizunai Eclipse Hotel
619,Bataipora,BR,66.0,-22.2953,-53.2711,Hotel Vale do Ivinhema
620,Khandyga,RU,85.44,62.6667,135.6,Apel'sin
621,Myitkyina,MM,80.51,25.3833,97.4,Shwe Phyu Hotel
623,Fort Nelson,CA,69.39,58.8053,-122.7002,The Fort Nelson Hotel
624,Kefamenanu,ID,81.73,-9.4467,124.4781,Sokowindo Losmen
625,Koszalin,PL,63.68,54.1944,16.1722,Hotel Gromada
626,Sao Joao Da Barra,BR,67.06,-21.6403,-41.0511,Pousada Porto De Canoas
627,Morro Bay,US,68.88,35.3658,-120.8499,Inn at Morro Bay
628,Ginir,ET,65.34,7.1333,40.7,Sura Dare Village
629,Cam Ranh,VN,91.36,11.9214,109.1591,OYO 598 Peony Hotel
630,Pirovskoye,RU,73.87,57.6267,92.2658,
631,Nazarovo,RU,71.01,56.0064,90.3914,Zarya
632,Madaoua,NE,75.07,14.073,5.96,
633,Buala,SB,82.35,-8.145,159.5921,Maringe Lagoon Lodge
634,Makat,KZ,87.53,47.6469,53.3463,Umit
635,Odessa,UA,74.91,46.4775,30.7326,Londonskaya Hotel
636,Dingle,PH,86.59,10.9995,122.6711,SEGAYA PROPERTY
637,Bokoro,TD,74.75,12.3807,17.0568,
638,Mufumbwe,ZM,55.78,-13.6833,24.8,
639,Fuerte Olimpo,PY,70.45,-21.0415,-57.8738,Hospedaje DAMI
640,Naters,CH,67.95,46.3254,7.9891,Hotel Ambassador Brig
641,Takab,IR,81.14,36.4009,47.1133,نانوایی جواد
642,Kijang,KR,85.73,35.2442,129.2139,Samyang Beach Villa
643,Yeppoon,AU,67.78,-23.1333,150.7333,Villa Mar Colina
644,Chinhoyi,ZW,59.2,-17.3667,30.2,Msasa Guest House Chinhoyi (Wendy Shaw)
645,Leningradskiy,RU,38.91,69.3833,178.4167,Gostinitsa
646,Penalva,BR,71.58,-3.2942,-45.1736,Hotel São José
647,Bonthe,SL,74.26,7.5264,-12.505,Bonthe Holiday Village
648,Stephenville,US,87.82,32.2207,-98.2023,La Quinta Inn & Suites by Wyndham Stephenville
649,Aripuana,BR,69.89,-9.1667,-60.6333,
650,Porbandar,IN,84.18,21.6422,69.6093,Lords Inn Porbandar
651,Minas,UY,61.02,-34.3759,-55.2377,Hotel Minas
652,Roebourne,AU,79.34,-20.7833,117.1333,Latitude20 Roebourne Village
653,Susanville,US,82.24,40.4163,-120.653,Comfort Inn & Suites
654,Duiwelskloof,ZA,57.24,-23.6934,30.14,Silvermist Guesthouse
655,Kitimat,CA,79.18,54.0524,-128.6534,Kingfish Westcoast Adventures Ltd. Kitimat Estuary Lodge B&B
656,Tarko-Sale,RU,64.36,64.9225,77.785,Yubileynaya
657,Eureka,US,67.68,40.8021,-124.1637,Eureka Inn Trademark By Wyndham
658,Kaniama,CD,69.96,-7.5667,24.1833,
659,Nipawin,CA,55.44,53.3668,-104.0009,Tobin Lake Motel
660,Eldama Ravine,KE,60.17,0.0516,35.7308,Chambai Springs Hotel
661,Carlsbad,US,70.84,33.1581,-117.3506,Carlsbad Inn Beach Resort
662,Viedma,AR,42.13,-40.8135,-62.9967,Hotel Cristal
663,Tacuarembo,UY,63.52,-31.7333,-55.9833,Complejo San Fructuoso
664,Vila,PT,52.68,42.0304,-8.1588,Hotel Castrum Villae by Walk Hotels
665,Palu,ID,83.34,-0.8917,119.8707,Hotel Santika Palu
666,Coleraine,GB,53.51,55.1333,-6.6667,The Lodge Hotel
667,Lyuban,BY,63.3,52.7985,28.0048,"Gostinitsa ""Oressa"""
668,Smithers,CA,70.12,54.7804,-127.1743,"Prestige Hudson Bay Lodge, Premier Collection"
669,Sisimiut,GL,40.41,66.9395,-53.6735,Hotel Sisimiut
670,Hobyo,SO,80.2,5.3505,48.5268,Iftin hotel hobyo
671,Doha,QA,85.98,25.2867,51.5333,Doha Marriott Hotel
672,Kiruna,SE,47.32,67.8557,20.2251,Camp Ripan
673,Sur,OM,85.06,22.5667,59.5289,Sur Plaza Hotel
674,Soverato,IT,81.16,38.685,16.5499,Hotel San Domenico
675,Athabasca,CA,63.01,54.7169,-113.2854,Athabasca Lodge Motel
676,Rio Grande,BR,58.95,-32.035,-52.0986,Hotel Atlântico Rio Grande
677,Maragogi,BR,70.29,-9.0122,-35.2225,Salinas do Maragogi All Inclusive Resort
678,Sao Miguel Do Araguaia,BR,67.59,-13.275,-50.1628,Hotel Executivo Palace
679,Zhicheng,CN,90.05,30.2956,111.5047,Wangjiang Building
680,Gwadar,PK,83.3,25.1216,62.3254,Sadaf Resort
681,Irece,BR,59.88,-11.3042,-41.8558,Hotel Copa 70
682,Zonguldak,TR,58.05,41.25,31.8333,Yazioren Koyu Muhtarligi
683,Takoradi,GH,74.34,4.8845,-1.7554,Raybow International Hotel
684,Verkhoyansk,RU,86.27,67.5447,133.385,
685,Bac Lieu,VN,87.37,9.285,105.7244,Khách sạn Sài Gòn Bạc Liêu
686,Strezhevoy,RU,69.75,60.7333,77.5889,Sibiryachka
687,Osorno,CL,37.26,-40.5667,-73.15,Sonesta Hotel Osorno
688,Akhmim,EG,91.22,26.5622,31.745,برج الماسة السكني
689,King City,US,77.92,36.2127,-121.126,Days Inn by Wyndham King City
