City_ID,City_ID,City,Country,Lat,Lng,Max Temp,Min Temp,Humidity,Cloudiness,Wind Speed,Current Description,Date
0,0,Punta Arenas,CL,-53.15,-70.9167,33.91,33.91,86,40,4.61,scattered clouds,2022-08-05 23:29:16
1,1,Khatanga,RU,71.9667,102.5,59.41,59.41,78,11,7.23,few clouds,2022-08-05 23:29:16
2,2,Kapaa,US,22.0752,-159.319,83.48,82.11,70,20,11.5,few clouds,2022-08-05 23:29:17
3,3,Severo-Yeniseyskiy,RU,60.3725,93.0408,44.26,44.26,88,99,2.91,overcast clouds,2022-08-05 23:25:28
4,4,Katsuyama,JP,36.0617,136.501,80.96,80.96,80,100,4.76,overcast clouds,2022-08-05 23:29:18
5,5,Enid,US,36.3956,-97.8784,104.02,100.08,31,0,16.11,clear sky,2022-08-05 23:29:18
6,6,Moose Factory,CA,51.2585,-80.6094,77.0,75.18,57,100,5.75,overcast clouds,2022-08-05 23:29:19
7,7,Dikson,RU,73.5069,80.5464,42.67,42.67,100,100,8.77,light rain,2022-08-05 23:29:19
8,8,Aklavik,CA,68.2191,-135.0107,77.0,77.0,41,75,11.5,broken clouds,2022-08-05 23:29:20
9,9,Edd,ER,13.9297,41.6925,89.58,89.58,64,72,5.7,light rain,2022-08-05 23:21:28
10,10,Saint-Philippe,RE,-21.3585,55.7679,66.22,60.12,72,31,10.76,scattered clouds,2022-08-05 23:26:57
11,11,Chermen,RU,43.1486,44.7069,65.44,65.25,100,100,4.47,mist,2022-08-05 23:29:21
12,12,Parkes,AU,-33.1333,148.1833,47.17,47.17,74,14,8.1,few clouds,2022-08-05 23:29:21
13,13,Bereda,ES,43.2686,-7.5406,64.42,61.14,100,100,10.27,overcast clouds,2022-08-05 23:24:02
14,14,Bluff,NZ,-46.6,168.3333,49.41,49.41,90,76,7.49,light rain,2022-08-05 23:28:01
15,15,Palu,ID,-0.8917,119.8707,75.79,75.79,94,92,2.01,overcast clouds,2022-08-05 23:29:22
16,16,Daru,PG,-9.0763,143.2092,79.27,79.27,89,99,13.49,overcast clouds,2022-08-05 23:29:23
17,17,Ancud,CL,-41.8697,-73.8203,42.22,42.22,84,4,6.69,clear sky,2022-08-05 23:28:06
18,18,Hermanus,ZA,-34.4187,19.2345,54.81,54.81,85,62,5.75,broken clouds,2022-08-05 23:29:23
19,19,Port Elizabeth,ZA,-33.918,25.5701,55.69,55.31,89,0,8.05,clear sky,2022-08-05 23:26:43
20,20,Lavrentiya,RU,65.5833,-171.0,43.47,43.47,77,99,11.86,overcast clouds,2022-08-05 23:28:07
21,21,Nishihara,JP,26.1842,127.7558,85.28,83.68,84,40,2.3,scattered clouds,2022-08-05 23:29:24
22,22,Turukhansk,RU,65.8167,87.9833,58.57,58.57,81,90,2.48,overcast clouds,2022-08-05 23:22:35
23,23,Coquimbo,CL,-29.9533,-71.3436,55.13,55.13,87,0,6.91,clear sky,2022-08-05 23:29:25
24,24,Okhotsk,RU,59.3833,143.3,57.11,57.11,88,100,11.36,overcast clouds,2022-08-05 23:29:25
25,25,Westport,US,41.1415,-73.3579,86.02,79.86,70,0,4.61,clear sky,2022-08-05 23:25:55
26,26,Tharad,IN,24.3961,71.6267,80.89,80.89,86,100,4.7,overcast clouds,2022-08-05 23:29:26
27,27,Prince Rupert,CA,54.3161,-130.3201,62.69,58.69,84,20,18.41,few clouds,2022-08-05 23:29:10
28,28,Mocuba,MZ,-16.8392,36.9856,61.95,61.95,96,0,1.99,clear sky,2022-08-05 23:29:26
29,29,Thompson,CA,55.7435,-97.8558,53.76,53.76,94,100,13.8,mist,2022-08-05 23:24:40
30,30,Gat,IL,31.61,34.7642,80.4,75.78,100,0,3.58,clear sky,2022-08-05 23:28:01
31,31,Busselton,AU,-33.65,115.3333,54.25,54.25,72,80,5.91,broken clouds,2022-08-05 23:27:36
32,32,Carberry,CA,49.8689,-99.3602,77.23,77.23,44,76,13.85,broken clouds,2022-08-05 23:29:28
33,33,Albany,US,42.6001,-73.9662,86.65,79.29,71,90,1.52,overcast clouds,2022-08-05 23:29:28
34,34,Areka,ET,7.0667,37.7,60.15,60.15,84,46,1.61,scattered clouds,2022-08-05 23:29:29
35,35,Caravelas,BR,-17.7125,-39.2481,73.44,73.44,79,22,9.55,few clouds,2022-08-05 23:28:00
36,36,Orodara,BF,10.9492,-4.9342,70.61,70.61,94,99,4.41,light rain,2022-08-05 23:29:29
37,37,Mahebourg,MU,-20.4081,57.7,68.29,65.25,83,40,14.97,scattered clouds,2022-08-05 23:29:30
38,38,Le Port,RE,-20.9373,55.2919,66.61,60.51,59,35,6.22,scattered clouds,2022-08-05 23:29:30
39,39,Provideniya,RU,64.3833,-173.3,49.44,49.44,56,29,8.32,scattered clouds,2022-08-05 23:29:31
40,40,Tasiilaq,GL,65.6145,-37.6368,48.36,48.36,72,40,3.15,scattered clouds,2022-08-05 23:29:31
41,41,Kudahuvadhoo,MV,2.6708,72.8944,81.84,81.84,75,100,14.72,overcast clouds,2022-08-05 23:29:32
42,42,Kaitangata,NZ,-46.2817,169.8464,51.15,51.15,81,98,3.8,light rain,2022-08-05 23:29:32
43,43,Yazykovo,RU,55.2199,56.1353,60.26,60.26,73,0,3.29,clear sky,2022-08-05 23:29:32
44,44,Liaocheng,CN,36.4439,115.9647,81.5,81.5,88,1,8.5,clear sky,2022-08-05 23:29:33
45,45,Chumikan,RU,54.7183,135.315,53.33,53.33,98,100,26.15,moderate rain,2022-08-05 23:30:33
46,46,Narsaq,GL,60.9167,-46.05,46.62,46.62,94,100,3.76,overcast clouds,2022-08-05 23:22:48
47,47,Port Alfred,ZA,-33.5906,26.891,57.18,57.18,89,79,1.99,broken clouds,2022-08-05 23:30:34
48,48,Goderich,CA,43.7501,-81.7165,80.92,75.9,65,1,4.61,clear sky,2022-08-05 23:30:34
49,49,Tual,ID,-5.6667,132.75,79.36,79.36,85,98,8.37,overcast clouds,2022-08-05 23:30:35
50,50,Faanui,PF,-16.4833,-151.75,77.34,77.34,78,81,23.29,light rain,2022-08-05 23:30:35
51,51,Mount Gambier,AU,-37.8333,140.7667,52.25,52.25,90,51,3.13,broken clouds,2022-08-05 23:30:36
52,52,Atagay,RU,55.1033,99.3875,47.86,47.86,87,89,6.96,overcast clouds,2022-08-05 23:30:36
53,53,Behbahan,IR,30.5959,50.2417,95.74,95.74,47,6,0.96,clear sky,2022-08-05 23:30:37
54,54,Mansa,IN,29.9833,75.3833,79.72,79.72,86,17,6.62,few clouds,2022-08-05 23:30:37
55,55,Vaini,TO,-21.2,-175.2,75.36,75.36,100,75,13.8,broken clouds,2022-08-05 23:26:45
56,56,Jamestown,US,42.097,-79.2353,79.72,73.94,61,20,5.75,few clouds,2022-08-05 23:28:08
57,57,Talnakh,RU,69.4865,88.3972,49.21,49.21,81,40,2.55,scattered clouds,2022-08-05 23:30:38
58,58,Chokurdakh,RU,70.6333,147.9167,51.01,51.01,57,26,4.34,scattered clouds,2022-08-05 23:21:13
59,59,Mataura,NZ,-46.1927,168.8643,57.47,57.47,74,92,4.38,overcast clouds,2022-08-05 23:30:39
60,60,Bin Qirdan,TN,33.1378,11.2197,79.14,79.14,73,0,4.99,clear sky,2022-08-05 23:30:40
61,61,Pevek,RU,69.7008,170.3133,34.86,34.86,98,100,8.41,snow,2022-08-05 23:30:40
62,62,New Norfolk,AU,-42.7826,147.0587,48.7,43.88,71,96,4.0,overcast clouds,2022-08-05 23:30:41
63,63,Nikolskoye,RU,59.7035,30.7861,67.91,66.78,80,58,5.64,broken clouds,2022-08-05 23:26:51
64,64,Baracoa,CU,20.3467,-74.4958,80.26,80.26,84,99,12.82,overcast clouds,2022-08-05 23:30:41
65,65,Yellowknife,CA,62.456,-114.3525,69.57,68.52,42,75,4.61,broken clouds,2022-08-05 23:30:42
66,66,Lotofaga,WS,-13.9764,-171.8578,83.98,83.79,70,27,19.3,scattered clouds,2022-08-05 23:30:42
67,67,Mehamn,NO,71.0357,27.8492,49.95,48.11,81,83,8.05,broken clouds,2022-08-05 23:25:34
68,68,Fortuna,US,40.5982,-124.1573,71.91,64.74,70,20,18.41,few clouds,2022-08-05 23:26:44
69,69,Ribeira Grande,PT,38.5167,-28.7,75.92,75.92,83,57,8.7,broken clouds,2022-08-05 23:30:43
70,70,Guerrero Negro,MX,27.9769,-114.0611,77.94,77.94,68,3,20.29,clear sky,2022-08-05 23:27:59
71,71,Sorong,ID,-0.8833,131.25,80.1,80.1,83,100,9.95,overcast clouds,2022-08-05 23:30:44
72,72,Rikitea,PF,-23.1203,-134.9692,70.34,70.34,61,32,19.13,scattered clouds,2022-08-05 23:30:45
73,73,Tigzirt,DZ,36.8886,4.1198,78.19,78.19,73,0,8.41,clear sky,2022-08-05 23:26:47
74,74,Qaanaaq,GL,77.484,-69.3632,41.18,41.18,68,20,2.73,few clouds,2022-08-05 23:30:45
75,75,Ust-Tsilma,RU,65.441,52.1498,59.77,59.77,97,93,3.29,overcast clouds,2022-08-05 23:30:46
76,76,Campbell River,CA,50.0163,-125.2446,77.38,69.46,36,20,2.3,few clouds,2022-08-05 23:30:46
77,77,Castro,BR,-24.7911,-50.0119,56.66,56.66,65,0,2.71,clear sky,2022-08-05 23:28:52
78,78,Xuddur,SO,4.1213,43.8894,68.22,68.22,80,16,18.32,few clouds,2022-08-05 23:30:47
79,79,Hobart,AU,-42.8794,147.3294,49.05,44.22,90,75,12.66,broken clouds,2022-08-05 23:29:59
80,80,Savannah Bight,HN,16.45,-85.85,81.46,81.46,73,94,22.44,overcast clouds,2022-08-05 23:30:47
81,81,Nome,US,64.5011,-165.4064,57.16,53.67,76,100,13.8,overcast clouds,2022-08-05 23:16:35
82,82,Butaritari,KI,3.0707,172.7902,82.22,82.22,73,84,9.08,broken clouds,2022-08-05 23:30:48
83,83,Ilulissat,GL,69.2167,-51.1,46.42,46.42,87,75,2.3,broken clouds,2022-08-05 23:27:37
84,84,Rapu-Rapu,PH,13.1866,124.1256,81.3,81.3,79,100,8.93,light rain,2022-08-05 23:30:49
85,85,Jabinyanah,TN,35.035,10.9081,82.2,82.2,61,0,11.81,clear sky,2022-08-05 23:26:17
86,86,Taltal,CL,-25.4,-70.4833,55.2,55.2,81,24,0.36,few clouds,2022-08-05 23:24:12
87,87,Hualmay,PE,-11.0964,-77.6139,62.31,62.31,81,43,11.5,scattered clouds,2022-08-05 23:30:50
88,88,Kruisfontein,ZA,-34.0033,24.7314,51.17,51.17,90,39,5.99,scattered clouds,2022-08-05 23:30:50
89,89,Bengkulu,ID,-3.8004,102.2655,74.16,74.16,81,38,4.56,scattered clouds,2022-08-05 23:30:50
90,90,Saskylakh,RU,71.9167,114.0833,55.83,55.83,74,5,6.04,clear sky,2022-08-05 23:28:05
91,91,Camana,PE,-16.6228,-72.7111,60.66,60.66,86,72,5.84,broken clouds,2022-08-05 23:30:51
92,92,Siocon,PH,7.7061,122.1353,79.83,79.83,86,100,4.76,overcast clouds,2022-08-05 23:31:51
93,93,Chimbote,PE,-9.0853,-78.5783,62.22,62.22,85,84,10.6,broken clouds,2022-08-05 23:31:52
94,94,Lebowakgomo,ZA,-24.2,29.5,56.3,45.05,55,4,5.55,clear sky,2022-08-05 23:31:52
95,95,Pizarro,CO,4.9533,-77.366,77.05,77.05,90,81,6.62,moderate rain,2022-08-05 23:31:53
96,96,Mar Del Plata,AR,-38.0023,-57.5575,48.22,46.94,85,0,5.01,clear sky,2022-08-05 23:31:53
97,97,Alofi,NU,-19.0595,-169.9187,78.69,78.69,83,100,14.97,overcast clouds,2022-08-05 23:29:26
98,98,Ocampo,MX,21.65,-101.5,72.64,72.64,28,56,19.55,broken clouds,2022-08-05 23:31:54
99,99,Carnarvon,AU,-24.8667,113.6333,59.05,59.05,54,0,12.97,clear sky,2022-08-05 23:31:54
100,100,Atuona,PF,-9.8,-139.0333,77.16,77.16,77,41,15.14,light rain,2022-08-05 23:31:55
101,101,Podporozhye,RU,60.9112,34.1706,62.92,62.92,80,7,4.59,clear sky,2022-08-05 23:31:55
102,102,Gumdag,TM,39.2061,54.5906,88.47,88.47,25,27,10.96,scattered clouds,2022-08-05 23:31:56
103,103,Oranjemund,,-28.55,16.4333,53.31,53.31,87,95,5.68,overcast clouds,2022-08-05 23:31:56
104,104,Rocha,UY,-34.4833,-54.3333,42.85,42.85,91,0,4.7,clear sky,2022-08-05 23:26:40
105,105,Concepcion Del Uruguay,AR,-32.4825,-58.2372,52.99,51.26,75,2,5.95,clear sky,2022-08-05 23:31:04
106,106,Katima Mulilo,,-17.5,24.2667,61.38,61.38,46,0,4.76,clear sky,2022-08-05 23:31:57
107,107,Soma,TR,39.1855,27.6094,68.67,68.67,84,0,8.32,clear sky,2022-08-05 23:31:57
108,108,Hokitika,NZ,-42.7167,170.9667,56.07,56.07,97,100,16.67,overcast clouds,2022-08-05 23:31:58
109,109,Ushuaia,AR,-54.8,-68.3,37.06,37.06,81,20,10.36,few clouds,2022-08-05 23:27:38
110,110,Pilar,BR,-9.5972,-35.9567,73.33,73.33,91,22,0.78,few clouds,2022-08-05 23:31:58
111,111,Yar-Sale,RU,66.8333,70.8333,59.58,59.58,81,97,7.56,overcast clouds,2022-08-05 23:31:59
112,112,Fukue,JP,32.6881,128.8419,84.56,84.56,89,75,4.61,broken clouds,2022-08-05 23:32:00
113,113,Cabo San Lucas,MX,22.8909,-109.9124,95.61,92.17,43,0,8.05,clear sky,2022-08-05 23:30:31
114,114,Krasnyy Chikoy,RU,50.3643,108.7512,57.43,57.43,81,86,2.04,overcast clouds,2022-08-05 23:32:00
115,115,Grindavik,IS,63.8424,-22.4338,53.55,52.27,100,100,20.71,overcast clouds,2022-08-05 23:30:28
116,116,Calarasi,MD,47.2544,28.3081,68.32,68.32,76,8,3.04,clear sky,2022-08-05 23:32:01
117,117,Zhigansk,RU,66.7697,123.3711,49.06,49.06,97,100,19.6,moderate rain,2022-08-05 23:24:08
118,118,Hilo,US,19.7297,-155.09,87.28,78.12,85,100,10.36,overcast clouds,2022-08-05 23:32:02
119,119,Padang,ID,-0.9492,100.3543,73.45,73.45,82,90,3.76,overcast clouds,2022-08-05 23:32:02
120,120,Lakhtar,IN,22.85,71.7833,79.5,79.5,86,100,8.03,overcast clouds,2022-08-05 23:32:03
121,121,Bredasdorp,ZA,-34.5322,20.0403,52.12,52.12,92,49,3.31,scattered clouds,2022-08-05 23:32:03
122,122,Sinnamary,GF,5.3833,-52.95,78.53,78.53,78,3,9.48,clear sky,2022-08-05 23:32:04
123,123,Severo-Kurilsk,RU,50.6789,156.125,57.4,57.4,83,100,2.89,overcast clouds,2022-08-05 23:32:04
124,124,Cape Town,ZA,-33.9258,18.4232,57.11,48.11,91,75,3.44,broken clouds,2022-08-05 23:32:05
125,125,Zhuhai,CN,22.2769,113.5678,80.85,78.51,94,40,3.44,scattered clouds,2022-08-05 23:32:05
126,126,Hithadhoo,MV,-0.6,73.0833,82.08,82.08,74,82,12.21,broken clouds,2022-08-05 23:32:06
127,127,Cidreira,BR,-30.1811,-50.2056,51.8,51.8,74,62,8.84,broken clouds,2022-08-05 23:32:06
128,128,Longyearbyen,SJ,78.2186,15.6401,48.04,48.04,87,75,4.61,broken clouds,2022-08-05 23:32:07
129,129,Avarua,CK,-21.2078,-159.775,75.25,75.25,73,20,16.11,few clouds,2022-08-05 23:28:03
130,130,Tucuman,AR,-26.8241,-65.2226,60.8,60.8,63,100,6.91,overcast clouds,2022-08-05 23:32:07
131,131,Kolosovka,RU,56.4678,73.611,58.68,58.68,80,44,5.73,scattered clouds,2022-08-05 23:32:08
132,132,Vila Franca Do Campo,PT,37.7167,-25.4333,72.01,72.01,93,100,5.06,light rain,2022-08-05 23:32:08
133,133,Oranjestad,AW,12.524,-70.027,82.35,82.35,78,20,20.71,few clouds,2022-08-05 23:32:09
134,134,Kavieng,PG,-2.5744,150.7967,83.19,83.19,68,59,5.66,broken clouds,2022-08-05 23:32:09
135,135,Havelock,US,34.8791,-76.9013,87.78,82.94,79,94,3.0,overcast clouds,2022-08-05 23:23:48
136,136,Victoria,HK,22.2855,114.1577,82.26,79.03,92,96,5.01,overcast clouds,2022-08-05 23:22:24
137,137,Minna,NG,9.6139,6.5569,78.51,78.51,83,0,2.3,clear sky,2022-08-05 23:32:10
138,138,Chiredzi,ZW,-21.05,31.6667,64.83,64.83,53,0,4.9,clear sky,2022-08-05 23:33:11
139,139,Valdivia,CL,-39.8142,-73.2459,46.49,46.49,98,100,3.0,overcast clouds,2022-08-05 23:33:11
140,140,Haines Junction,CA,60.7522,-137.5108,62.55,62.55,55,100,6.91,overcast clouds,2022-08-05 23:33:12
141,141,Lebu,CL,-37.6167,-73.65,50.77,50.77,91,100,3.47,overcast clouds,2022-08-05 23:33:13
142,142,Katsuura,JP,35.1333,140.3,76.46,76.46,73,98,6.58,overcast clouds,2022-08-05 23:33:13
143,143,Puerto Ayora,EC,-0.7393,-90.3518,70.56,70.56,89,47,5.99,scattered clouds,2022-08-05 23:30:25
144,144,Igarka,RU,67.4667,86.5833,55.02,55.02,86,9,5.35,clear sky,2022-08-05 23:33:14
145,145,Roma,US,43.2128,-75.4557,82.54,77.58,78,20,5.75,few clouds,2022-08-05 23:33:15
146,146,Quebo,GW,11.3333,-14.9333,73.13,73.13,97,100,3.44,overcast clouds,2022-08-05 23:33:15
147,147,Tuktoyaktuk,CA,69.4541,-133.0374,77.0,77.0,38,40,12.66,scattered clouds,2022-08-05 23:33:15
148,148,Xushan,CN,30.1764,121.2457,87.73,87.73,68,25,6.44,scattered clouds,2022-08-05 23:33:16
149,149,Bosaso,SO,11.2842,49.1816,90.72,90.72,41,29,14.07,scattered clouds,2022-08-05 23:33:16
150,150,Bambous Virieux,MU,-20.3428,57.7575,68.25,65.21,83,40,14.97,scattered clouds,2022-08-05 23:33:17
151,151,Fare,PF,-16.7,-151.0167,76.96,76.96,78,59,24.05,light rain,2022-08-05 23:33:04
152,152,Vardo,NO,70.3705,31.1107,51.78,51.78,87,100,4.61,overcast clouds,2022-08-05 23:33:18
153,153,Bathsheba,BB,13.2167,-59.5167,83.01,81.05,88,20,20.71,few clouds,2022-08-05 23:33:18
154,154,Saint Simons,US,31.1352,-81.3901,87.84,84.06,64,0,11.5,clear sky,2022-08-05 23:29:20
155,155,Oussouye,SN,12.485,-16.5469,78.89,75.38,90,100,9.42,light rain,2022-08-05 23:33:19
156,156,Marsa Matruh,EG,31.3525,27.2453,77.2,77.2,78,20,4.61,few clouds,2022-08-05 23:33:19
157,157,Dali,CN,25.7,100.1833,63.91,63.91,88,55,0.67,broken clouds,2022-08-05 23:33:20
158,158,Hay River,CA,60.8156,-115.7999,64.38,64.36,52,40,11.5,scattered clouds,2022-08-05 23:33:20
159,159,Alegre,BR,-20.7636,-41.5331,71.94,71.94,45,0,3.24,clear sky,2022-08-05 23:28:29
160,160,Maturin,VE,9.75,-63.1767,74.03,74.03,97,100,5.28,overcast clouds,2022-08-05 23:30:07
161,161,Sakakah,SA,29.9697,40.2064,90.97,90.97,25,51,18.57,broken clouds,2022-08-05 23:33:21
162,162,Ilhabela,BR,-23.7781,-45.3581,66.36,66.36,85,93,3.85,overcast clouds,2022-08-05 23:33:22
163,163,Matara,LK,5.9485,80.5353,76.84,76.84,86,100,11.63,overcast clouds,2022-08-05 23:28:04
164,164,Sembe,CG,1.6481,14.5806,70.05,70.05,98,90,2.19,overcast clouds,2022-08-05 23:33:22
165,165,Geraldton,AU,-28.7667,114.6,43.21,43.21,93,4,10.36,clear sky,2022-08-05 23:26:45
166,166,Port Lincoln,AU,-34.7333,135.8667,55.31,55.31,67,19,12.01,few clouds,2022-08-05 23:33:23
167,167,Presidencia Roque Saenz Pena,AR,-26.7852,-60.4388,54.41,54.41,52,0,7.52,clear sky,2022-08-05 23:33:24
168,168,Iqaluit,CA,63.7506,-68.5145,44.33,44.33,91,75,3.44,broken clouds,2022-08-05 23:29:16
169,169,Alice Springs,AU,-23.7,133.8833,47.75,47.75,46,0,3.44,clear sky,2022-08-05 23:30:13
170,170,Tuatapere,NZ,-46.1333,167.6833,52.07,52.07,85,59,5.46,light rain,2022-08-05 23:26:41
171,171,Vavatenina,MG,-17.4667,49.2,58.59,58.59,99,15,2.48,few clouds,2022-08-05 23:33:25
172,172,Santa Rosa,PH,14.3122,121.1114,78.78,77.02,92,100,3.2,overcast clouds,2022-08-05 23:33:25
173,173,Mandalgovi,MN,45.7625,106.2708,62.28,62.28,74,17,19.55,few clouds,2022-08-05 23:33:26
174,174,Murdochville,CA,48.9583,-65.5006,58.08,58.08,60,1,2.59,clear sky,2022-08-05 23:33:26
175,175,Woodward,US,36.4337,-99.3904,104.97,99.52,31,40,10.36,scattered clouds,2022-08-05 23:32:00
176,176,Marktredwitz,DE,50.005,12.0811,61.25,54.81,92,100,3.0,light rain,2022-08-05 23:33:27
177,177,Kharan,PK,28.5833,65.4167,88.02,88.02,37,38,3.36,scattered clouds,2022-08-05 23:33:27
178,178,Yago,MX,21.8333,-105.0667,84.78,84.78,84,69,3.94,broken clouds,2022-08-05 23:33:28
179,179,Chapais,CA,49.7834,-74.8492,69.58,69.58,44,26,2.86,scattered clouds,2022-08-05 23:26:45
180,180,Birao,CF,10.2849,22.7882,69.53,69.53,93,77,1.9,broken clouds,2022-08-05 23:25:23
181,181,San Juan,AR,-31.5375,-68.5364,57.11,57.11,45,2,6.98,clear sky,2022-08-05 23:30:43
182,182,Kabare,CD,-2.4683,28.8242,59.92,59.92,79,29,0.94,scattered clouds,2022-08-05 23:34:29
183,183,Barrow,US,71.2906,-156.7887,41.02,41.02,93,100,12.66,mist,2022-08-05 23:34:29
184,184,Beatrice,US,40.2681,-96.747,93.29,91.38,52,0,12.66,clear sky,2022-08-05 23:34:29
185,185,Dunedin,NZ,-45.8742,170.5036,54.81,54.81,70,100,1.99,overcast clouds,2022-08-05 23:34:30
186,186,Esperance,AU,-33.8667,121.9,51.44,51.44,79,99,9.55,overcast clouds,2022-08-05 23:34:30
187,187,Evensk,RU,61.95,159.2333,52.21,52.21,97,100,8.37,overcast clouds,2022-08-05 23:28:07
188,188,Acobamba,PE,-11.3525,-75.6594,52.99,52.99,95,97,4.27,overcast clouds,2022-08-05 23:34:31
189,189,Luderitz,,-26.6481,15.1594,60.8,60.8,61,65,4.9,broken clouds,2022-08-05 23:34:31
190,190,Karasburg,,-28.0167,18.75,60.48,60.48,31,100,11.36,overcast clouds,2022-08-05 23:34:32
191,191,Saint Anthony,US,45.0205,-93.218,88.84,84.09,51,0,19.57,clear sky,2022-08-05 23:34:32
192,192,Lompoc,US,34.6391,-120.4579,84.02,65.12,75,0,16.11,mist,2022-08-05 23:34:32
193,193,Bethel,US,41.3712,-73.414,86.09,78.39,75,0,5.75,clear sky,2022-08-05 23:34:33
194,194,Airai,TL,-8.9266,125.4092,65.52,65.52,71,81,2.98,broken clouds,2022-08-05 23:32:01
195,195,Port Macquarie,AU,-31.4333,152.9167,64.89,64.89,58,17,5.37,few clouds,2022-08-05 23:26:44
196,196,Wausau,US,44.9591,-89.6301,84.11,78.89,49,0,11.5,clear sky,2022-08-05 23:34:34
197,197,Tiksi,RU,71.6872,128.8694,41.2,41.2,89,100,6.82,overcast clouds,2022-08-05 23:33:21
198,198,Fria,GN,10.4167,-13.5833,72.21,72.21,98,88,0.63,overcast clouds,2022-08-05 23:34:34
199,199,Khandagayty,RU,50.7333,92.05,53.37,53.37,58,12,7.54,few clouds,2022-08-05 23:34:35
200,200,Luanda,AO,-8.8368,13.2343,68.0,68.0,83,75,4.61,broken clouds,2022-08-05 23:31:27
201,201,Asau,RO,46.4333,26.4,63.52,63.52,77,3,4.03,clear sky,2022-08-05 23:28:09
202,202,Sarangani,PH,5.4033,125.4636,82.92,82.92,71,52,7.9,broken clouds,2022-08-05 23:34:36
203,203,Georgetown,MY,5.4112,100.3354,82.89,77.99,89,20,7.0,few clouds,2022-08-05 23:30:20
204,204,Billings,US,45.7833,-108.5007,81.28,78.51,28,75,14.97,broken clouds,2022-08-05 23:33:09
205,205,Cherskiy,RU,68.75,161.3,54.91,54.91,50,99,12.24,overcast clouds,2022-08-05 23:34:36
206,206,College,US,64.8569,-147.8028,53.55,49.8,93,100,12.66,moderate rain,2022-08-05 23:34:37
207,207,Muros,ES,42.7762,-9.0603,69.1,67.84,74,89,16.46,overcast clouds,2022-08-05 23:34:37
208,208,Tahta,EG,26.7693,31.5021,86.79,86.79,29,85,8.57,overcast clouds,2022-08-05 23:34:38
209,209,Yenagoa,NG,4.9247,6.2642,73.04,73.04,88,64,3.6,broken clouds,2022-08-05 23:34:38
210,210,Mogadishu,SO,2.0371,45.3438,75.67,75.67,83,56,19.86,light rain,2022-08-05 23:34:39
211,211,Santa Vitoria Do Palmar,BR,-33.5189,-53.3681,46.15,46.15,90,2,4.81,clear sky,2022-08-05 23:34:39
212,212,Guanica,PR,17.9716,-66.908,84.13,76.6,80,91,13.6,overcast clouds,2022-08-05 23:34:40
213,213,Rincon,US,32.296,-81.2354,84.16,82.83,79,75,6.91,broken clouds,2022-08-05 23:31:39
214,214,Norman Wells,CA,65.282,-126.8329,82.44,82.44,32,20,9.22,few clouds,2022-08-05 23:34:40
215,215,Klaksvik,FO,62.2266,-6.589,50.92,50.92,84,3,8.25,clear sky,2022-08-05 23:26:43
216,216,Dabat,ET,12.9842,37.765,52.0,52.0,97,100,3.42,light rain,2022-08-05 23:34:41
217,217,Erenhot,CN,43.6475,111.9767,77.27,77.27,40,100,16.62,overcast clouds,2022-08-05 23:34:41
218,218,Lukulu,ZM,-14.3707,23.242,63.18,63.18,37,5,8.97,clear sky,2022-08-05 23:34:42
219,219,Mpika,ZM,-11.8343,31.4529,52.93,52.93,71,12,4.61,few clouds,2022-08-05 23:34:42
220,220,Mecca,SA,21.4267,39.8261,86.04,86.04,55,81,5.32,broken clouds,2022-08-05 23:31:37
221,221,Saint-Pierre,RE,-21.3393,55.4781,66.29,60.19,62,20,6.91,few clouds,2022-08-05 23:34:43
222,222,Vaitape,PF,-16.5167,-151.75,77.32,77.32,78,80,23.47,light rain,2022-08-05 23:34:44
223,223,Swiecie,PL,53.4095,18.4474,71.26,65.57,91,85,9.13,overcast clouds,2022-08-05 23:34:44
224,224,Zaysan,KZ,47.4667,84.8667,64.65,64.65,43,91,2.26,overcast clouds,2022-08-05 23:34:45
225,225,Hope,US,33.6671,-93.5916,96.85,93.97,51,60,6.85,broken clouds,2022-08-05 23:30:24
226,226,Saint-Augustin,CA,51.226,-58.6502,66.67,66.67,49,83,7.02,broken clouds,2022-08-05 23:34:45
227,227,Port Keats,AU,-14.25,129.55,80.96,80.96,52,7,7.9,clear sky,2022-08-05 23:34:46
228,228,Broken Hill,AU,-31.95,141.4333,51.44,51.44,66,0,17.6,clear sky,2022-08-05 23:35:47
229,229,Constitucion,CL,-35.3333,-72.4167,52.74,52.74,95,100,2.55,overcast clouds,2022-08-05 23:33:23
230,230,Quatre Cocos,MU,-20.2078,57.7625,68.11,65.08,65,13,12.19,few clouds,2022-08-05 23:35:47
231,231,Ordzhonikidzevskaya,RU,43.3211,45.0522,68.34,68.34,89,100,3.02,overcast clouds,2022-08-05 23:35:48
232,232,Killybegs,IE,54.6333,-8.45,53.78,53.78,80,69,8.61,broken clouds,2022-08-05 23:35:48
233,233,Shebunino,RU,46.4339,141.8603,65.05,65.05,83,100,8.08,overcast clouds,2022-08-05 23:35:49
234,234,Ohara,JP,35.25,140.3833,75.99,75.99,73,100,6.35,overcast clouds,2022-08-05 23:35:49
235,235,Northam,GB,51.0333,-4.2167,58.6,54.66,74,100,8.68,overcast clouds,2022-08-05 23:35:46
236,236,The Valley,AI,18.217,-63.0578,83.1,82.09,78,40,13.8,scattered clouds,2022-08-05 23:35:50
237,237,Bambanglipuro,ID,-7.95,110.2833,73.76,73.76,85,52,3.38,broken clouds,2022-08-05 23:35:51
238,238,Balapur,IN,20.6667,76.7667,77.47,77.47,91,100,7.56,overcast clouds,2022-08-05 23:35:51
239,239,Kodiak,US,57.79,-152.4072,63.91,63.91,45,0,18.41,clear sky,2022-08-05 23:33:09
240,240,Rioja,AR,-29.4111,-66.8507,56.97,56.97,56,8,2.57,clear sky,2022-08-05 23:35:52
241,241,Khasan,RU,42.4308,130.6434,77.02,77.02,83,35,2.89,scattered clouds,2022-08-05 23:35:52
242,242,Alihe,CN,50.5667,123.7167,72.01,72.01,50,13,11.54,few clouds,2022-08-05 23:35:53
243,243,Broome,US,42.2506,-75.833,78.89,71.17,83,0,4.61,clear sky,2022-08-05 23:34:39
244,244,Sa Kaeo,TH,13.75,102.3333,74.34,74.34,96,100,7.31,overcast clouds,2022-08-05 23:35:53
245,245,Thayetmyo,MM,19.3167,95.1833,76.71,76.71,93,100,8.34,overcast clouds,2022-08-05 23:35:54
246,246,Araouane,ML,18.9048,-3.5265,98.4,98.4,24,99,4.83,overcast clouds,2022-08-05 23:35:54
247,247,Olafsvik,IS,64.8945,-23.7142,52.52,52.52,91,100,15.88,light rain,2022-08-05 23:35:54
248,248,Nouadhibou,MR,20.931,-17.0347,70.56,70.56,90,3,8.77,clear sky,2022-08-05 23:35:55
249,249,Waingapu,ID,-9.6567,120.2641,74.91,74.91,64,85,2.95,overcast clouds,2022-08-05 23:35:55
250,250,Tigil,RU,57.8,158.6667,64.13,64.13,61,94,6.17,overcast clouds,2022-08-05 23:35:56
251,251,Miraflores,MX,19.2167,-98.8083,75.96,71.87,55,79,3.06,broken clouds,2022-08-05 23:35:57
252,252,Namibe,AO,-15.1961,12.1522,61.18,61.18,86,17,6.85,few clouds,2022-08-05 23:35:57
253,253,Dingle,PH,10.9995,122.6711,80.26,80.26,82,98,3.76,overcast clouds,2022-08-05 23:35:58
254,254,Majene,ID,-3.5403,118.9707,78.58,78.58,80,34,5.97,scattered clouds,2022-08-05 23:35:58
255,255,Aranos,,-24.1333,19.1167,57.22,57.22,26,17,9.89,few clouds,2022-08-05 23:35:59
256,256,Makakilo City,US,21.3469,-158.0858,86.32,80.19,60,0,11.5,clear sky,2022-08-05 23:28:02
257,257,Sao Filipe,CV,14.8961,-24.4956,77.45,77.45,81,36,5.44,scattered clouds,2022-08-05 23:35:59
258,258,Taoudenni,ML,22.6783,-3.9836,101.43,101.43,15,32,10.54,scattered clouds,2022-08-05 23:36:00
259,259,Vao,NC,-22.6667,167.4833,72.63,72.63,80,57,12.3,broken clouds,2022-08-05 23:36:01
260,260,Burns Lake,CA,54.2331,-125.7533,69.22,69.22,36,49,5.75,scattered clouds,2022-08-05 23:36:01
261,261,East Wenatchee,US,47.4157,-120.2931,84.25,79.83,21,0,11.5,clear sky,2022-08-05 23:36:01
262,262,Manado,ID,1.487,124.8455,81.37,81.37,83,40,2.3,scattered clouds,2022-08-05 23:36:02
263,263,Lagoa,PT,39.05,-27.9833,74.55,74.55,85,20,9.75,few clouds,2022-08-05 23:36:03
264,264,Kyabram,AU,-36.3167,145.05,47.88,47.88,92,96,6.35,overcast clouds,2022-08-05 23:36:03
265,265,Portland,US,45.5234,-122.6762,86.14,78.85,37,20,12.66,few clouds,2022-08-05 23:27:33
266,266,Thaton,MM,16.9206,97.3714,75.04,75.04,97,100,5.84,overcast clouds,2022-08-05 23:36:04
267,267,Sangar,RU,63.9242,127.4739,59.74,59.74,96,100,17.29,moderate rain,2022-08-05 23:36:04
268,268,Dwarka,IN,22.2394,68.9678,81.25,81.25,82,100,9.71,overcast clouds,2022-08-05 23:36:05
269,269,East London,ZA,-33.0153,27.9116,60.93,60.93,78,22,10.11,few clouds,2022-08-05 23:36:05
270,270,Kamenka,RU,51.3223,42.7678,66.34,66.34,59,3,8.01,clear sky,2022-08-05 23:36:06
271,271,Hofn,IS,64.2539,-15.2082,52.05,52.05,90,51,7.78,broken clouds,2022-08-05 23:36:06
272,272,Ahuimanu,US,21.4447,-157.8378,85.14,81.75,68,40,11.5,scattered clouds,2022-08-05 23:36:07
273,273,Guarda,PT,40.5373,-7.2658,57.24,57.24,71,2,1.99,clear sky,2022-08-05 23:35:47
274,274,Astana,KZ,51.1801,71.446,55.35,55.35,67,0,6.71,clear sky,2022-08-05 23:37:08
275,275,Chute-Aux-Outardes,CA,49.1168,-68.399,66.18,66.18,55,0,12.66,clear sky,2022-08-05 23:37:08
276,276,Veraval,IN,20.9,70.3667,80.35,80.35,84,100,7.0,overcast clouds,2022-08-05 23:37:09
277,277,Codrington,AU,-38.2667,141.9667,49.37,49.37,92,84,6.46,broken clouds,2022-08-05 23:37:09
278,278,Gizo,SB,-8.103,156.8419,83.75,83.75,67,75,6.98,broken clouds,2022-08-05 23:37:10
279,279,Bodden Town,KY,19.2833,-81.25,87.01,84.92,69,20,9.22,few clouds,2022-08-05 23:37:10
280,280,Viedma,AR,-40.8135,-62.9967,41.65,41.65,73,18,8.14,few clouds,2022-08-05 23:37:11
281,281,Isangel,VU,-19.55,169.2667,82.51,82.51,69,20,4.61,few clouds,2022-08-05 23:34:09
282,282,Pingxiang,CN,27.6167,113.85,83.01,83.01,75,82,1.21,broken clouds,2022-08-05 23:37:12
283,283,Eyl,SO,7.9803,49.8164,76.51,76.51,70,1,23.53,clear sky,2022-08-05 23:33:18
284,284,Pasuquin,PH,18.3328,120.6177,80.55,80.55,94,75,4.61,broken clouds,2022-08-05 23:37:12
285,285,Laguna,US,38.421,-121.4238,91.45,84.02,43,0,12.66,clear sky,2022-08-05 23:37:13
286,286,Vilhena,BR,-12.7406,-60.1458,80.82,80.82,50,0,4.61,clear sky,2022-08-05 23:36:00
287,287,Muisne,EC,0.6,-80.0333,74.17,74.17,85,99,11.52,overcast clouds,2022-08-05 23:37:14
288,288,Pokhara,NP,28.2333,83.9833,72.19,72.19,92,100,2.42,overcast clouds,2022-08-05 23:37:14
289,289,Palana,RU,59.1167,159.9667,52.77,52.77,85,100,14.14,overcast clouds,2022-08-05 23:37:15
290,290,Nampula,MZ,-15.1165,39.2666,67.95,67.95,94,75,5.75,broken clouds,2022-08-05 23:37:15
291,291,Vostok,RU,46.4856,135.8833,64.98,64.98,97,100,3.69,overcast clouds,2022-08-05 23:34:29
292,292,Saldanha,ZA,-33.0117,17.9442,48.25,48.25,94,3,10.45,clear sky,2022-08-05 23:37:16
293,293,Matamoros,MX,25.5333,-103.25,95.11,95.11,21,75,12.66,dust,2022-08-05 23:37:16
294,294,Liwale,TZ,-9.7667,37.9333,59.95,59.95,96,31,1.79,scattered clouds,2022-08-05 23:37:17
295,295,Malakal,SS,9.5334,31.6605,71.04,71.04,95,99,3.18,moderate rain,2022-08-05 23:37:17
296,296,Acari,PE,-15.4311,-74.6158,63.5,63.5,78,84,3.78,broken clouds,2022-08-05 23:37:18
297,297,Morrope,PE,-6.5417,-80.0111,62.71,62.71,78,100,14.7,overcast clouds,2022-08-05 23:37:19
298,298,Pangnirtung,CA,66.1451,-65.7125,40.98,40.98,97,100,2.15,light rain,2022-08-05 23:37:19
299,299,Hambantota,LK,6.1241,81.1185,77.86,77.86,81,100,17.02,overcast clouds,2022-08-05 23:37:19
300,300,Roald,NO,62.5833,6.1333,55.17,50.09,87,75,17.27,light rain,2022-08-05 23:37:20
301,301,Changji,CN,44.0167,87.3167,81.39,81.39,47,72,4.47,broken clouds,2022-08-05 23:37:21
302,302,Leh,IN,34.1667,77.5833,59.86,59.86,67,61,4.99,broken clouds,2022-08-05 23:37:21
303,303,Nanortalik,GL,60.1432,-45.2371,46.51,46.51,91,100,11.03,overcast clouds,2022-08-05 23:37:21
304,304,Van Wert,US,40.8695,-84.5841,83.98,78.35,77,0,5.75,clear sky,2022-08-05 23:33:30
305,305,Ponta Do Sol,PT,32.6667,-17.1,71.71,70.43,81,25,6.38,scattered clouds,2022-08-05 23:37:22
306,306,Itupiranga,BR,-5.1347,-49.3267,82.72,82.72,65,52,2.62,broken clouds,2022-08-05 23:37:23
307,307,Rabo De Peixe,PT,37.8,-25.5833,71.11,71.11,94,100,5.75,light rain,2022-08-05 23:37:23
308,308,Brigantine,US,39.4101,-74.3646,87.03,75.99,70,0,6.91,clear sky,2022-08-05 23:37:24
309,309,Gigant,RU,46.5066,41.3419,70.81,70.81,65,82,8.68,moderate rain,2022-08-05 23:37:24
310,310,Afua,BR,-0.1567,-50.3867,75.61,75.61,92,71,6.4,broken clouds,2022-08-05 23:37:25
311,311,Flagstaff,US,35.1981,-111.6513,84.52,73.4,41,40,10.36,scattered clouds,2022-08-05 23:33:34
312,312,Nelson,NZ,-41.2833,173.2833,59.29,59.29,93,100,1.01,light rain,2022-08-05 23:35:56
313,313,Bulnes,CL,-36.7423,-72.2985,52.56,52.56,94,100,7.29,overcast clouds,2022-08-05 23:37:26
314,314,Awjilah,LY,29.1081,21.2869,82.02,82.02,46,0,13.31,clear sky,2022-08-05 23:37:26
315,315,Den Helder,NL,52.9599,4.7593,60.98,51.96,68,20,7.0,few clouds,2022-08-05 23:37:26
316,316,Nongan,CN,44.382,125.1685,74.59,74.59,74,25,7.54,scattered clouds,2022-08-05 23:37:27
317,317,Kaeo,NZ,-35.1,173.7833,59.32,59.32,95,54,5.03,broken clouds,2022-08-05 23:37:27
318,318,Ewa Beach,US,21.3156,-158.0072,85.37,81.99,63,40,11.5,scattered clouds,2022-08-05 23:37:28
319,319,Sitka,US,57.0531,-135.33,57.09,57.09,88,100,6.91,moderate rain,2022-08-05 23:36:49
320,320,Alghero,IT,40.5589,8.3181,75.29,75.29,94,35,1.14,scattered clouds,2022-08-05 23:37:29
321,321,Doha,QA,25.2867,51.5333,94.89,91.71,73,5,10.36,clear sky,2022-08-05 23:38:19
322,322,Cayenne,GF,4.9333,-52.3333,82.09,80.64,1,0,4.61,clear sky,2022-08-05 23:37:58
323,323,Andenes,NO,69.3143,16.1194,51.93,48.18,87,75,9.22,broken clouds,2022-08-05 23:38:30
324,324,Kenai,US,60.5544,-151.2583,62.69,59.05,75,0,28.77,clear sky,2022-08-05 23:38:30
325,325,Saint George,US,37.1041,-113.5841,94.62,91.94,37,75,12.66,broken clouds,2022-08-05 23:38:31
326,326,Malpe,IN,13.35,74.7167,74.5,74.5,88,100,17.67,overcast clouds,2022-08-05 23:38:31
327,327,Touros,BR,-5.1989,-35.4608,74.44,74.44,82,43,12.57,scattered clouds,2022-08-05 23:38:32
328,328,Clyde River,CA,70.4692,-68.5914,48.43,48.43,66,0,12.66,clear sky,2022-08-05 23:38:32
329,329,Bilibino,RU,68.0546,166.4372,49.51,49.51,67,100,11.97,light rain,2022-08-05 23:38:32
330,330,Chuy,UY,-33.6971,-53.4616,45.72,45.72,90,2,4.61,clear sky,2022-08-05 23:38:33
331,331,Lazarev,RU,52.225,141.5131,60.78,60.78,84,100,24.99,overcast clouds,2022-08-05 23:38:34
332,332,Katete,UG,-0.7818,29.7544,62.91,62.91,73,75,3.27,broken clouds,2022-08-05 23:38:34
333,333,Englewood,US,39.6478,-104.9878,90.09,80.33,35,75,11.5,broken clouds,2022-08-05 23:38:01
334,334,Malang,ID,-7.9797,112.6304,71.82,71.82,68,51,0.78,broken clouds,2022-08-05 23:38:35
335,335,Tivaouane,SN,14.9515,-16.8129,77.34,77.34,81,97,7.85,overcast clouds,2022-08-05 23:38:35
336,336,San Pedro,PH,14.35,121.0167,78.03,76.32,93,100,1.14,overcast clouds,2022-08-05 23:38:36
337,337,Gold Coast,AU,-28.0,153.4333,63.25,62.01,86,40,5.75,scattered clouds,2022-08-05 23:34:24
338,338,Palatka,US,29.6486,-81.6376,86.63,83.03,75,100,1.01,overcast clouds,2022-08-05 23:38:13
339,339,Walvis Bay,,-22.9575,14.5053,53.1,50.95,100,4,6.91,clear sky,2022-08-05 23:38:37
340,340,Manapparai,IN,10.6,78.4167,77.86,77.86,73,100,9.01,overcast clouds,2022-08-05 23:38:37
341,341,Barcelona,ES,41.3888,2.159,79.32,72.61,66,0,1.14,clear sky,2022-08-05 23:34:45
342,342,Cap Malheureux,MU,-19.9842,57.6142,65.46,65.46,74,20,5.01,few clouds,2022-08-05 23:38:38
343,343,Inhambane,MZ,-23.865,35.3833,67.96,67.96,86,0,6.4,clear sky,2022-08-05 23:38:38
344,344,Kolobrzeg,PL,54.1757,15.5834,68.97,62.15,65,83,14.52,broken clouds,2022-08-05 23:38:39
345,345,Chegdomyn,RU,51.1167,133.0167,66.4,66.4,97,95,4.05,light rain,2022-08-05 23:38:39
346,346,Yakeshi,CN,49.2833,120.7333,66.07,66.07,68,60,9.84,broken clouds,2022-08-05 23:38:39
347,347,Lazaro Cardenas,MX,17.9583,-102.2,84.51,84.51,67,29,6.78,scattered clouds,2022-08-05 23:38:40
348,348,Veere,NL,51.5483,3.6667,62.58,51.98,71,2,1.14,clear sky,2022-08-05 23:38:40
349,349,Tazovskiy,RU,67.4667,78.7,53.64,53.64,96,100,9.15,light rain,2022-08-05 23:38:41
350,350,Upernavik,GL,72.7868,-56.1549,41.31,41.31,94,94,10.38,overcast clouds,2022-08-05 23:34:25
351,351,Avadi,IN,13.1156,80.1017,80.78,80.38,89,75,11.5,mist,2022-08-05 23:38:42
352,352,Biak,ID,-0.9131,122.8766,72.45,72.45,91,100,2.28,overcast clouds,2022-08-05 23:38:42
353,353,Pimentel,PE,-6.8367,-79.9342,62.89,62.89,77,0,20.71,clear sky,2022-08-05 23:38:43
354,354,Campoverde,PE,-8.4753,-74.8058,80.29,80.29,97,100,1.45,overcast clouds,2022-08-05 23:38:43
355,355,Tuapse,RU,44.1125,39.0742,70.05,70.05,81,1,4.47,clear sky,2022-08-05 23:34:47
356,356,Te Anau,NZ,-45.4167,167.7167,51.37,51.37,81,86,4.72,overcast clouds,2022-08-05 23:38:44
357,357,Jinchang,CN,38.4953,102.1739,79.95,79.95,40,52,12.28,broken clouds,2022-08-05 23:38:45
358,358,Doka,SD,13.5167,35.7667,70.32,70.32,94,100,6.62,moderate rain,2022-08-05 23:38:45
359,359,Coahuayana,MX,18.7333,-103.6833,84.9,84.9,70,90,5.19,overcast clouds,2022-08-05 23:38:46
360,360,Tra Vinh,VN,9.9347,106.3453,76.82,76.82,89,100,8.12,overcast clouds,2022-08-05 23:38:47
361,361,San Policarpo,PH,12.1791,125.5072,81.64,81.64,79,100,11.99,overcast clouds,2022-08-05 23:38:47
362,362,Xifeng,CN,42.7372,124.7222,77.94,77.94,79,85,5.44,overcast clouds,2022-08-05 23:38:48
363,363,Sobolevo,RU,54.4299,31.8996,63.86,63.86,89,25,6.42,scattered clouds,2022-08-05 23:38:48
364,364,Hami,CN,42.8,93.45,84.34,84.34,25,66,9.31,broken clouds,2022-08-05 23:38:49
365,365,Calama,CL,-22.4667,-68.9333,57.69,57.69,19,40,14.97,scattered clouds,2022-08-05 23:34:21
366,366,Bandar-E Lengeh,IR,26.5579,54.8807,92.21,92.21,65,2,2.44,clear sky,2022-08-05 23:38:49
367,367,Akdepe,TM,42.0551,59.3788,75.29,75.29,56,1,7.36,clear sky,2022-08-05 23:38:50
368,368,Umm Lajj,SA,25.0213,37.2685,87.75,87.75,68,44,5.61,scattered clouds,2022-08-05 23:38:50
369,369,Egvekinot,RU,66.3167,-179.1667,49.84,49.84,49,28,10.74,scattered clouds,2022-08-05 23:37:02
370,370,Snyder,US,32.7179,-100.9176,102.31,100.74,16,40,5.75,scattered clouds,2022-08-05 23:39:51
371,371,Sawtell,AU,-30.3833,153.1,60.82,60.82,63,99,3.44,overcast clouds,2022-08-05 23:39:51
372,372,Tucurui,BR,-3.7661,-49.6725,78.69,78.69,71,79,2.89,broken clouds,2022-08-05 23:39:52
373,373,Monterey,US,36.2505,-121.2516,87.17,75.18,16,61,13.98,broken clouds,2022-08-05 23:39:52
374,374,Bubaque,GW,11.2833,-15.8333,79.32,79.32,80,100,11.1,overcast clouds,2022-08-05 23:39:53
375,375,Santo Tomas,PH,14.1079,121.1414,77.25,75.56,94,100,1.7,overcast clouds,2022-08-05 23:39:53
376,376,Omboue,GA,-1.5746,9.2618,70.63,70.63,85,68,7.81,broken clouds,2022-08-05 23:39:54
377,377,Ilo,PE,-17.6394,-71.3375,59.07,59.07,84,90,3.04,overcast clouds,2022-08-05 23:39:54
378,378,Kutum,SD,14.2,24.6667,78.21,78.21,57,78,7.81,broken clouds,2022-08-05 23:37:11
379,379,Ust-Karsk,RU,52.7011,118.8077,64.83,64.83,68,28,2.1,scattered clouds,2022-08-05 23:39:55
380,380,Huron,US,41.1501,-82.5499,81.16,76.69,82,12,5.53,few clouds,2022-08-05 23:37:51
381,381,Kumluca,TR,36.3703,30.2869,81.25,81.25,75,0,3.18,clear sky,2022-08-05 23:39:55
383,383,Arraial Do Cabo,BR,-22.9661,-42.0278,70.38,70.38,83,26,18.03,scattered clouds,2022-08-05 23:39:57
384,384,Lufilufi,WS,-13.8745,-171.5986,83.98,83.79,70,32,18.16,scattered clouds,2022-08-05 23:39:57
385,385,Kidal,ML,18.4411,1.4078,91.78,91.78,36,2,6.42,clear sky,2022-08-05 23:39:57
386,386,Svetlogorsk,BY,52.6333,29.7333,64.24,64.24,91,11,5.88,few clouds,2022-08-05 23:39:58
388,388,Lata,PT,40.1629,-8.3327,62.29,62.29,95,4,0.43,clear sky,2022-08-05 23:39:35
389,389,Buraydah,SA,26.326,43.975,91.85,91.85,15,44,4.07,scattered clouds,2022-08-05 23:38:35
390,390,Rangapara,IN,26.8167,92.65,77.68,77.68,95,96,2.98,overcast clouds,2022-08-05 23:39:59
391,391,Iisalmi,FI,63.5592,27.1907,63.93,63.93,68,97,9.4,light rain,2022-08-05 23:39:59
392,392,Salamiyah,SY,35.0113,37.0532,79.14,79.14,44,0,10.85,clear sky,2022-08-05 23:40:00
393,393,Chateaurenard,FR,43.8817,4.8549,81.23,73.65,47,0,19.57,clear sky,2022-08-05 23:40:00
394,394,Paamiut,GL,61.994,-49.6678,44.15,44.15,97,100,6.96,light rain,2022-08-05 23:40:01
395,395,Mezen,RU,65.8522,44.24,61.75,61.75,89,18,6.17,few clouds,2022-08-05 23:40:01
396,396,Benguela,AO,-12.5763,13.4055,66.63,66.63,84,81,4.76,broken clouds,2022-08-05 23:40:02
397,397,Luba,GQ,3.4568,8.5547,76.14,76.14,89,100,6.85,light rain,2022-08-05 23:40:02
398,398,Najran,SA,17.4924,44.1277,79.45,79.45,53,99,4.07,overcast clouds,2022-08-05 23:40:03
399,399,Samarai,PG,-10.6167,150.6667,80.73,80.73,84,57,12.57,broken clouds,2022-08-05 23:40:04
400,400,Naze,JP,28.3667,129.4833,83.32,83.32,79,92,5.7,overcast clouds,2022-08-05 23:40:04
401,401,Cabra,ES,37.4725,-4.4421,76.14,76.14,51,0,2.24,clear sky,2022-08-05 23:40:04
402,402,Los Llanitos,HN,13.2869,-87.3344,88.25,88.25,71,100,4.76,overcast clouds,2022-08-05 23:40:05
403,403,Illapel,CL,-31.6308,-71.1653,51.49,51.49,82,10,1.52,clear sky,2022-08-05 23:36:11
404,404,Miranda,CO,3.2499,-76.2281,68.13,68.13,95,98,2.3,light rain,2022-08-05 23:40:06
405,405,Nyurba,RU,63.2842,118.3319,48.4,48.4,98,100,9.42,overcast clouds,2022-08-05 23:40:07
406,406,Iranshahr,IR,27.2025,60.6848,89.46,89.46,37,2,4.59,clear sky,2022-08-05 23:40:07
407,407,Sunbury,AU,-37.5833,144.7333,50.92,45.79,86,75,13.8,broken clouds,2022-08-05 23:40:08
408,408,Ayan,RU,56.45,138.1667,54.79,54.79,98,100,20.31,moderate rain,2022-08-05 23:40:08
409,409,Malinovskiy,RU,61.1953,62.8397,61.63,61.63,71,70,5.64,broken clouds,2022-08-05 23:40:09
410,410,Port Hawkesbury,CA,45.6169,-61.3485,77.04,71.73,84,40,2.3,scattered clouds,2022-08-05 23:40:09
411,411,Tsabong,BW,-26.0217,22.401,58.17,58.17,29,79,9.28,broken clouds,2022-08-05 23:40:10
412,412,Glasgow,GB,55.8652,-4.2576,55.11,49.62,88,69,3.44,broken clouds,2022-08-05 23:37:18
413,413,Pochutla,MX,15.7432,-96.4661,81.82,80.42,84,100,3.27,overcast clouds,2022-08-05 23:40:10
414,414,Aykhal,RU,66.0,111.5,50.18,50.18,82,100,24.38,overcast clouds,2022-08-05 23:40:11
415,415,Abaza,RU,52.655,90.0928,52.18,52.18,75,4,2.15,clear sky,2022-08-05 23:40:11
416,416,Andradina,BR,-20.8961,-51.3794,73.15,73.15,52,8,10.45,clear sky,2022-08-05 23:38:21
417,417,Praia Da Vitoria,PT,38.7333,-27.0667,73.76,71.85,100,75,11.36,broken clouds,2022-08-05 23:40:12
418,418,Teguise,ES,29.0605,-13.564,70.02,70.02,78,20,20.71,few clouds,2022-08-05 23:40:12
419,419,Kommunisticheskiy,RU,61.6789,64.4819,64.45,64.45,66,99,4.94,overcast clouds,2022-08-05 23:41:12
420,420,Salalah,OM,17.0151,54.0924,78.89,78.89,94,75,2.3,broken clouds,2022-08-05 23:41:13
421,421,Carutapera,BR,-1.195,-46.02,77.09,77.09,83,10,8.9,clear sky,2022-08-05 23:41:13
422,422,Vila Velha,BR,-20.3297,-40.2925,76.95,74.95,83,0,14.97,clear sky,2022-08-05 23:40:09
423,423,Rio Grande,BR,-32.035,-52.0986,46.51,43.95,83,1,6.31,clear sky,2022-08-05 23:41:14
424,424,Terrace,CA,54.5163,-128.6035,75.11,75.11,49,75,5.75,broken clouds,2022-08-05 23:36:55
425,425,Korla,CN,41.7597,86.1469,84.85,84.85,26,99,13.51,overcast clouds,2022-08-05 23:41:15
426,426,Bonthe,SL,7.5264,-12.505,76.39,76.39,83,79,6.62,broken clouds,2022-08-05 23:41:15
427,427,Beringovskiy,RU,63.05,179.3167,55.58,55.58,61,8,8.61,clear sky,2022-08-05 23:41:16
428,428,Lodja,CD,-3.4833,23.4333,73.22,73.22,44,21,1.66,few clouds,2022-08-05 23:41:16
429,429,Harper,LR,4.375,-7.7169,73.81,73.81,77,58,7.72,broken clouds,2022-08-05 23:41:16
430,430,Juba,SS,4.8517,31.5825,69.33,69.33,90,41,2.68,light rain,2022-08-05 23:41:17
431,431,Bilma,NE,18.6853,12.9164,92.37,92.37,19,85,1.7,overcast clouds,2022-08-05 23:41:17
432,432,Leningradskiy,RU,69.3833,178.4167,34.0,34.0,93,100,8.77,light snow,2022-08-05 23:41:18
433,433,Los Llanos De Aridane,ES,28.6585,-17.9182,69.55,69.55,88,100,18.41,overcast clouds,2022-08-05 23:41:18
434,434,Denizli,TR,37.8402,29.0698,77.36,77.36,60,1,3.06,clear sky,2022-08-05 23:41:19
435,435,Sosnovo-Ozerskoye,RU,52.5249,111.5418,55.63,55.63,62,6,13.02,clear sky,2022-08-05 23:41:19
436,436,Bukachacha,RU,52.9833,116.9167,65.07,65.07,64,77,3.38,broken clouds,2022-08-05 23:41:20
437,437,Thessalon,CA,46.2501,-83.5666,71.89,71.89,79,1,8.99,clear sky,2022-08-05 23:41:20
438,438,Bluefields,NI,12.0137,-83.7635,78.87,78.87,89,75,9.22,broken clouds,2022-08-05 23:41:20
439,439,Caraballeda,VE,10.6112,-66.8522,84.27,84.27,70,40,5.75,scattered clouds,2022-08-05 23:41:21
440,440,Tuensang,IN,26.2833,94.8333,69.42,69.42,98,40,3.42,scattered clouds,2022-08-05 23:41:21
441,441,Suraabad,AZ,40.8192,49.4687,80.17,80.17,64,97,17.13,overcast clouds,2022-08-05 23:41:22
442,442,Acapulco,MX,16.8634,-99.8901,85.82,85.82,66,40,10.36,scattered clouds,2022-08-05 23:38:29
443,443,Andapa,MG,-14.65,49.65,54.97,54.97,99,31,3.47,scattered clouds,2022-08-05 23:41:23
444,444,Boulsa,BF,12.6675,-0.5758,76.51,76.51,82,41,8.97,scattered clouds,2022-08-05 23:41:23
445,445,Nevers,FR,46.9167,3.3333,63.55,63.55,57,39,7.94,scattered clouds,2022-08-05 23:41:24
446,446,Aktash,RU,50.3,87.7333,40.23,40.23,90,2,1.77,clear sky,2022-08-05 23:41:24
447,447,Tura,IN,25.5198,90.2201,74.3,74.3,97,98,5.3,overcast clouds,2022-08-05 23:41:24
448,448,Berlevag,NO,70.8578,29.0864,51.6,48.15,87,91,9.22,overcast clouds,2022-08-05 23:41:25
449,449,Adrar,MR,20.5022,-10.0711,95.72,95.72,28,34,14.99,scattered clouds,2022-08-05 23:41:26
450,450,Port Hedland,AU,-20.3167,118.5667,59.05,59.05,44,0,10.36,clear sky,2022-08-05 23:41:26
451,451,Port Blair,IN,11.6667,92.75,80.64,80.64,89,75,10.36,mist,2022-08-05 23:41:26
452,452,Manokwari,ID,-0.8667,134.0833,78.51,78.51,71,100,3.87,overcast clouds,2022-08-05 23:41:27
453,453,Nasice,HR,45.4886,18.0878,74.75,72.55,50,0,3.62,clear sky,2022-08-05 23:41:27
454,454,Formosa,AR,-26.1775,-58.1781,55.38,55.38,76,0,4.61,clear sky,2022-08-05 23:41:28
455,455,Magistralnyy,RU,56.1725,107.4458,48.78,48.78,91,100,6.13,light rain,2022-08-05 23:41:28
456,456,Nuuk,GL,64.1835,-51.7216,45.21,43.88,93,75,18.41,broken clouds,2022-08-05 23:41:29
457,457,Kahului,US,20.8947,-156.47,91.42,85.84,43,40,13.8,scattered clouds,2022-08-05 23:41:29
458,458,Itarema,BR,-2.9248,-39.9167,77.97,77.97,83,6,15.17,clear sky,2022-08-05 23:38:25
459,459,Fushun,CN,41.8558,123.9233,76.71,76.71,81,96,2.28,overcast clouds,2022-08-05 23:41:30
460,460,Necochea,AR,-38.5473,-58.7368,43.25,43.25,71,51,7.4,broken clouds,2022-08-05 23:41:31
461,461,Inta,RU,66.0317,60.1659,57.43,57.43,92,94,10.42,overcast clouds,2022-08-05 23:41:32
462,462,Cukai,MY,4.25,103.4167,73.35,73.0,93,100,10.0,overcast clouds,2022-08-05 23:41:32
463,463,Itoman,JP,26.1247,127.6694,86.02,84.4,84,75,2.3,broken clouds,2022-08-05 23:41:33
464,464,Chake Chake,TZ,-5.2459,39.7666,69.87,69.87,80,2,7.02,clear sky,2022-08-05 23:42:33
465,465,San Patricio,US,28.017,-97.5169,92.12,83.86,52,69,17.76,broken clouds,2022-08-05 23:38:21
466,466,Calatayud,ES,41.3535,-1.6432,70.03,70.03,70,5,3.69,clear sky,2022-08-05 23:42:34
467,467,Henties Bay,,-22.116,14.2845,55.81,55.81,86,3,0.4,clear sky,2022-08-05 23:42:34
468,468,Fairbanks,US,64.8378,-147.7164,53.56,49.82,93,100,12.66,moderate rain,2022-08-05 23:42:35
469,469,Avera,US,33.194,-82.5271,85.37,81.91,73,92,8.3,overcast clouds,2022-08-05 23:42:35
470,470,San Cristobal,VE,7.7669,-72.225,75.38,75.38,98,82,2.82,broken clouds,2022-08-05 23:42:36
471,471,Rio Gallegos,AR,-51.6226,-69.2181,33.85,33.85,86,0,5.75,clear sky,2022-08-05 23:39:01
472,472,Batemans Bay,AU,-35.7167,150.1833,55.09,55.09,45,26,10.0,scattered clouds,2022-08-05 23:42:36
473,473,Robertsport,LR,6.7533,-11.3686,77.23,77.23,79,97,10.0,overcast clouds,2022-08-05 23:42:37
475,475,Yining,CN,29.0361,114.5636,84.34,84.34,70,55,2.28,broken clouds,2022-08-05 23:42:38
476,476,Mount Isa,AU,-20.7333,139.5,67.77,67.77,34,75,14.97,broken clouds,2022-08-05 23:42:39
477,477,Dodge City,US,37.7528,-100.0171,101.7,100.22,31,0,17.27,clear sky,2022-08-05 23:42:39
478,478,Lincoln,US,40.8,-96.667,98.51,93.27,38,0,12.66,clear sky,2022-08-05 23:37:49
479,479,Nebbi,UG,2.4783,31.0889,70.29,70.29,68,89,1.81,overcast clouds,2022-08-05 23:42:40
480,480,Franca,BR,-20.5386,-47.4008,68.52,68.52,37,7,1.79,clear sky,2022-08-05 23:42:40
481,481,Sines,PT,37.9562,-8.8698,64.29,64.29,91,13,1.99,few clouds,2022-08-05 23:42:41
482,482,Copiapo,CL,-27.3667,-70.3333,49.69,49.69,59,7,2.73,clear sky,2022-08-05 23:42:41
483,483,Misratah,LY,32.3754,15.0925,80.69,80.69,65,0,8.03,clear sky,2022-08-05 23:42:42
484,484,Amga,RU,60.8953,131.9608,68.88,68.88,63,96,12.95,overcast clouds,2022-08-05 23:42:42
485,485,Kalmunai,LK,7.4167,81.8167,77.11,77.11,69,100,5.7,overcast clouds,2022-08-05 23:42:42
486,486,Nioro,GM,13.35,-15.75,74.3,74.3,96,100,6.06,overcast clouds,2022-08-05 23:42:43
487,487,Inuvik,CA,68.3499,-133.7218,81.46,79.56,31,75,12.66,broken clouds,2022-08-05 23:42:43
488,488,Chaozhou,CN,23.6651,116.6379,80.46,80.46,81,63,2.04,broken clouds,2022-08-05 23:42:44
489,489,Tadine,NC,-21.55,167.8833,75.58,75.58,81,47,11.41,scattered clouds,2022-08-05 23:42:44
490,490,Mbuji-Mayi,CD,-6.15,23.6,75.31,75.31,31,25,2.15,scattered clouds,2022-08-05 23:42:45
491,491,Tanete,ID,-3.9443,119.7848,77.88,77.88,76,13,2.95,few clouds,2022-08-05 23:42:46
492,492,Yulara,AU,-25.2406,130.9889,54.12,54.12,37,0,10.58,clear sky,2022-08-05 23:42:46
493,493,Lorengau,PG,-2.0226,147.2712,82.94,82.94,70,100,2.42,overcast clouds,2022-08-05 23:42:47
494,494,Hovd,MN,48.0056,91.6419,60.42,60.42,60,51,1.21,broken clouds,2022-08-05 23:42:47
495,495,Quelimane,MZ,-17.8786,36.8883,67.95,67.95,88,0,2.3,clear sky,2022-08-05 23:42:47
496,496,Faya,SA,18.3851,42.4509,66.31,63.12,73,99,4.43,overcast clouds,2022-08-05 23:42:48
497,497,Ambovombe,MG,-25.1667,46.0833,62.78,62.78,84,0,7.11,clear sky,2022-08-05 23:42:48
498,498,Gaogou,CN,34.0175,119.1886,86.29,86.29,75,64,5.97,broken clouds,2022-08-05 23:42:49
499,499,Sargatskoye,RU,55.6101,73.4972,58.98,58.98,81,10,4.47,clear sky,2022-08-05 23:42:49
500,500,Urdoma,RU,61.7533,48.5442,61.18,61.18,86,12,3.76,few clouds,2022-08-05 23:42:50
501,501,Batsfjord,NO,70.6345,29.7185,51.58,48.13,71,75,5.75,broken clouds,2022-08-05 23:42:50
502,502,Mayo,US,38.8876,-76.5119,80.98,71.71,87,90,3.0,light rain,2022-08-05 23:42:51
503,503,Ukiah,US,39.1502,-123.2078,89.65,72.16,40,0,14.97,clear sky,2022-08-05 23:42:51
504,504,Hasaki,JP,35.7333,140.8333,77.29,73.8,72,100,6.8,overcast clouds,2022-08-05 23:42:52
505,505,Myaundzha,RU,63.0494,147.1858,60.85,60.85,71,95,10.42,overcast clouds,2022-08-05 23:42:52
506,506,Bontang,ID,0.1333,117.5,76.41,76.41,90,79,9.57,moderate rain,2022-08-05 23:42:53
507,507,Chern,RU,53.4523,36.9145,63.79,63.79,82,43,4.56,scattered clouds,2022-08-05 23:43:53
508,508,Gabi,PH,7.6215,126.092,79.66,79.66,85,71,1.25,broken clouds,2022-08-05 23:43:53
509,509,Santiago,CL,-33.4569,-70.6483,54.86,52.75,49,0,5.75,clear sky,2022-08-05 23:39:51
510,510,Margherita,IN,27.2833,95.6833,76.71,76.71,94,61,2.28,broken clouds,2022-08-05 23:43:54
511,511,Aksarka,RU,66.5606,67.7975,58.26,58.26,87,74,9.19,broken clouds,2022-08-05 23:43:54
512,512,Rio Brilhante,BR,-21.8019,-54.5464,70.84,70.84,57,84,8.01,broken clouds,2022-08-05 23:43:55
513,513,Bang Sai,TH,14.2124,100.4966,79.99,78.76,91,100,1.79,overcast clouds,2022-08-05 23:43:55
514,514,Mersing,MY,2.4312,103.8405,76.91,76.91,88,40,2.3,scattered clouds,2022-08-05 23:43:56
515,515,Kuchinarai,TH,16.541,104.05,75.02,75.02,92,100,7.9,overcast clouds,2022-08-05 23:43:56
516,516,Linxia,CN,35.6003,103.2064,71.65,71.65,67,49,2.84,scattered clouds,2022-08-05 23:43:57
517,517,Sorland,NO,67.667,12.6934,53.46,53.46,85,99,33.55,overcast clouds,2022-08-05 23:43:57
518,518,New Bern,US,35.1085,-77.0441,86.02,82.98,70,0,10.36,clear sky,2022-08-05 23:39:42
519,519,Qandala,SO,11.472,49.8728,88.99,88.99,51,31,10.4,scattered clouds,2022-08-05 23:43:58
520,520,Khuzhir,RU,53.1939,107.3397,54.3,54.3,72,98,9.13,overcast clouds,2022-08-05 23:43:58
521,521,Wilmington,US,34.2257,-77.9447,84.94,82.85,72,20,8.05,few clouds,2022-08-05 23:43:02
522,522,Santa Maria,BR,-29.6842,-53.8069,47.5,47.5,100,0,2.3,clear sky,2022-08-05 23:40:23
523,523,Aromashevo,RU,56.8602,68.6375,62.56,62.56,71,47,5.17,scattered clouds,2022-08-05 23:43:59
524,524,Jalu,LY,29.0331,21.5482,83.8,83.8,36,0,14.83,clear sky,2022-08-05 23:44:00
525,525,Digha,IN,21.6833,87.55,82.24,82.24,85,100,4.0,overcast clouds,2022-08-05 23:44:00
526,526,Ostrovnoy,RU,68.0531,39.5131,60.6,60.6,87,92,16.91,overcast clouds,2022-08-05 23:44:01
527,527,Vuktyl,RU,63.8567,57.3094,64.33,64.33,73,100,3.27,overcast clouds,2022-08-05 23:44:01
528,528,Zhangye,CN,38.9342,100.4517,78.12,78.12,36,73,10.47,broken clouds,2022-08-05 23:44:02
529,529,Maragogi,BR,-9.0122,-35.2225,72.5,72.5,87,24,5.66,few clouds,2022-08-05 23:44:02
530,530,Warrensburg,US,38.7628,-93.7361,91.47,86.81,57,0,6.91,clear sky,2022-08-05 23:44:03
531,531,Phuket,TH,8.0,98.25,82.62,82.62,78,20,12.66,few clouds,2022-08-05 23:43:33
532,532,Estelle,US,29.8458,-90.1067,86.0,80.01,76,75,6.91,broken clouds,2022-08-05 23:44:04
533,533,Saint-Leu,RE,-21.15,55.2833,66.31,59.58,73,15,2.51,light rain,2022-08-05 23:44:04
534,534,Miles City,US,46.4083,-105.8406,81.57,81.57,21,100,13.8,overcast clouds,2022-08-05 23:44:05
535,535,Jeremie,HT,18.65,-74.1167,81.79,81.79,77,58,2.06,broken clouds,2022-08-05 23:44:05
536,536,Visnes,NO,59.3556,5.2242,55.22,53.65,76,100,17.27,light rain,2022-08-05 23:44:06
537,537,La Ronge,CA,55.1001,-105.2842,59.25,59.22,55,75,12.66,broken clouds,2022-08-05 23:44:07
538,538,Schleswig,DE,54.5167,9.55,55.06,49.75,88,15,4.61,few clouds,2022-08-05 23:44:07
539,539,Ajdabiya,LY,30.7554,20.2263,77.95,77.95,66,0,9.01,clear sky,2022-08-05 23:44:07
540,540,Tukrah,LY,32.5341,20.5791,78.17,78.17,76,0,3.53,clear sky,2022-08-05 23:44:08
541,541,Zahir Pir,PK,28.8124,70.524,86.32,86.32,66,100,11.74,overcast clouds,2022-08-05 23:44:08
542,542,Shimanovsk,RU,52.0,127.7,66.43,66.43,69,91,14.03,overcast clouds,2022-08-05 23:44:09
543,543,Komsomolskiy,UZ,40.4272,71.7189,74.23,74.23,36,17,2.93,few clouds,2022-08-05 23:40:56
544,544,Krasnoselkup,RU,65.7,82.4667,55.47,55.47,79,65,4.41,broken clouds,2022-08-05 23:44:10
545,545,Hamza,UZ,40.4264,71.4956,74.7,74.7,35,21,1.63,few clouds,2022-08-05 23:44:10
546,546,Kilindoni,TZ,-7.9139,39.6668,73.92,73.92,71,1,10.76,clear sky,2022-08-05 23:44:10
547,547,Comodoro Rivadavia,AR,-45.8667,-67.5,42.66,42.66,70,75,17.27,broken clouds,2022-08-05 23:44:11
548,548,Faribault,US,44.295,-93.2688,85.98,81.64,54,40,10.36,scattered clouds,2022-08-05 23:44:11
549,549,Tilichiki,RU,60.4667,166.1,55.54,55.54,80,100,2.35,overcast clouds,2022-08-05 23:44:12
550,550,Sabang,ID,5.8933,95.3214,82.06,82.06,73,100,19.35,overcast clouds,2022-08-05 23:45:12
551,551,Ojinaga,MX,29.5667,-104.4167,101.57,101.35,25,0,10.36,clear sky,2022-08-05 23:45:13
552,552,Gazanjyk,TM,39.2446,55.5154,87.04,87.04,24,4,10.92,clear sky,2022-08-05 23:45:13
553,553,Kaoma,ZM,-14.7833,24.8,56.66,56.66,48,3,5.84,clear sky,2022-08-05 23:45:14
554,554,Pueblo Nuevo,MX,23.3833,-105.3833,62.94,62.94,88,76,3.62,broken clouds,2022-08-05 23:45:14
555,555,Osa,RU,57.2829,55.4567,63.99,63.99,71,75,1.81,broken clouds,2022-08-05 23:45:14
556,556,Nisia Floresta,BR,-6.0911,-35.2086,75.58,74.21,88,4,7.99,clear sky,2022-08-05 23:41:19
557,557,Beloha,MG,-25.1667,45.05,67.96,67.96,67,71,6.13,broken clouds,2022-08-05 23:45:15
558,558,Temizhbekskaya,RU,45.4456,40.845,70.09,70.09,65,53,8.25,broken clouds,2022-08-05 23:45:16
559,559,Abu Zabad,SD,12.35,29.25,76.48,76.48,79,100,4.74,light rain,2022-08-05 23:45:16
560,560,Yabelo,ET,4.8833,38.0833,57.56,57.56,71,60,7.31,broken clouds,2022-08-05 23:45:17
561,561,Russell,US,32.3502,-85.1999,91.0,88.12,58,0,3.44,clear sky,2022-08-05 23:45:17
562,562,Jining,CN,35.405,116.5814,85.44,85.44,79,0,6.62,clear sky,2022-08-05 23:45:18
563,563,Kalininskaya,RU,45.4822,38.6628,68.67,68.67,78,2,7.49,clear sky,2022-08-05 23:45:18
564,564,Beyneu,KZ,45.3167,55.2,79.25,79.25,38,17,6.82,few clouds,2022-08-05 23:45:19
565,565,Flinders,AU,-34.5833,150.8552,63.37,56.25,57,2,10.0,clear sky,2022-08-05 23:45:19
566,566,Aitape,PG,-3.1374,142.3475,81.9,81.9,72,100,2.39,overcast clouds,2022-08-05 23:45:19
567,567,Biltine,TD,14.5333,20.9167,80.24,80.24,69,47,7.36,scattered clouds,2022-08-05 23:45:20
568,568,Mitsamiouli,KM,-11.3847,43.2844,73.15,73.15,72,2,0.51,clear sky,2022-08-05 23:45:20
569,569,Ranong,TH,9.9658,98.6348,78.73,78.73,86,99,10.83,overcast clouds,2022-08-05 23:45:21
570,570,Haysyn,UA,48.8114,29.3898,63.77,63.77,90,0,6.55,clear sky,2022-08-05 23:45:21
571,571,Bulungu,CD,-4.55,18.6,77.86,77.86,29,56,2.64,broken clouds,2022-08-05 23:45:23
572,572,Palaikastron,GR,35.2,26.25,78.03,78.03,64,0,23.22,clear sky,2022-08-05 23:45:24
573,573,Maxixe,MZ,-23.8597,35.3472,66.76,66.76,89,0,5.53,clear sky,2022-08-05 23:45:24
574,574,Ixtapa,MX,20.7,-105.2,85.23,81.63,78,75,8.05,broken clouds,2022-08-05 23:45:25
575,575,Oriximina,BR,-1.7656,-55.8661,79.02,79.02,69,37,3.71,scattered clouds,2022-08-05 23:45:25
576,576,Saint-Joseph,RE,-21.3667,55.6167,65.21,59.11,71,25,5.88,scattered clouds,2022-08-05 23:45:26
577,577,Urumqi,CN,43.801,87.6005,77.95,77.95,47,83,4.47,broken clouds,2022-08-05 23:42:02
578,578,Bijie,CN,27.3125,105.2942,67.21,67.21,91,95,3.13,overcast clouds,2022-08-05 23:45:26
579,579,Jizan,SA,17.3333,42.6667,85.14,85.14,67,98,9.24,overcast clouds,2022-08-05 23:45:27
580,580,Bezhanitsy,RU,56.9767,29.8907,66.69,66.69,85,38,5.93,scattered clouds,2022-08-05 23:45:27
581,581,Sol-Iletsk,RU,51.1631,54.9918,66.78,66.78,54,80,8.72,broken clouds,2022-08-05 23:45:28
582,582,Semnan,IR,35.5729,53.3971,82.24,82.24,30,0,2.3,clear sky,2022-08-05 23:45:28
583,583,Segezha,RU,63.7415,34.3222,62.01,62.01,77,59,9.44,broken clouds,2022-08-05 23:45:28
584,584,Tingi,TZ,-11.3,35.0333,57.74,57.74,57,6,3.13,clear sky,2022-08-05 23:45:29
585,585,Deputatskiy,RU,69.3,139.9,50.88,50.88,66,99,4.18,overcast clouds,2022-08-05 23:45:29
586,586,Baindur,IN,13.8667,74.6333,77.4,77.4,92,100,15.77,overcast clouds,2022-08-05 23:45:30
587,587,San Luis,AR,-33.295,-66.3356,55.99,55.99,46,43,5.99,scattered clouds,2022-08-05 23:42:50
588,588,Beidao,CN,34.5686,105.8933,77.27,77.27,76,58,4.61,broken clouds,2022-08-05 23:45:30
589,589,Altay,CN,47.8667,88.1167,64.33,64.33,41,65,3.89,broken clouds,2022-08-05 23:45:31
590,590,Erzin,TR,36.9559,36.2,75.06,75.06,89,0,0.67,clear sky,2022-08-05 23:45:31
591,591,Upata,VE,8.0086,-62.3989,71.55,71.55,96,90,3.78,overcast clouds,2022-08-05 23:45:32
592,592,Sibolga,ID,1.7427,98.7792,75.83,75.83,77,88,3.15,overcast clouds,2022-08-05 23:45:33
593,593,Sao Felix Do Xingu,BR,-6.6447,-51.995,82.38,82.38,51,41,2.84,scattered clouds,2022-08-05 23:45:33
594,594,Brae,GB,60.3964,-1.353,51.21,51.21,78,86,14.05,overcast clouds,2022-08-05 23:45:34
595,595,Durango,MX,24.8333,-104.8333,74.77,74.77,41,74,11.5,broken clouds,2022-08-05 23:43:51
596,596,Bahia Blanca,AR,-38.7196,-62.2724,46.56,46.56,52,95,4.99,overcast clouds,2022-08-05 23:45:34
597,597,Mercedes,AR,-34.6515,-59.4307,50.86,49.03,53,4,5.57,clear sky,2022-08-05 23:45:35
598,598,Yangambi,CD,0.8102,24.4336,71.13,71.13,95,72,1.54,broken clouds,2022-08-05 23:46:35
599,599,Belfast,GB,54.5833,-5.9333,55.22,50.47,72,32,4.61,scattered clouds,2022-08-05 23:46:01
600,600,Black River,JM,18.0264,-77.8487,81.59,81.59,76,84,2.44,broken clouds,2022-08-05 23:46:36
601,601,Waipawa,NZ,-41.4122,175.5153,54.55,54.55,68,100,16.44,overcast clouds,2022-08-05 23:46:36
602,602,Traverse City,US,44.7631,-85.6206,86.11,78.03,54,40,6.91,scattered clouds,2022-08-05 23:46:32
603,603,Atbasar,KZ,51.8,68.3333,59.58,59.58,63,72,8.46,broken clouds,2022-08-05 23:46:37
604,604,Mweka,CD,-4.85,21.5667,70.3,70.3,35,18,0.92,few clouds,2022-08-05 23:46:37
605,605,Esso,RU,55.9333,158.7,70.52,70.52,56,9,1.92,clear sky,2022-08-05 23:46:38
606,606,Sooke,CA,48.3746,-123.7276,78.78,62.17,56,14,3.44,few clouds,2022-08-05 23:46:38
607,607,Torbay,CA,47.6666,-52.7314,70.57,65.39,80,75,24.16,broken clouds,2022-08-05 23:46:39
608,608,Chaoyang,CN,41.5703,120.4586,83.26,83.26,67,94,3.15,overcast clouds,2022-08-05 23:46:40
609,609,Atambua,ID,-9.1061,124.8925,75.74,75.74,71,98,2.8,overcast clouds,2022-08-05 23:46:40
610,610,Kailua,US,21.4022,-157.7394,85.41,81.64,72,40,10.36,scattered clouds,2022-08-05 23:42:51
611,611,Pacific Grove,US,36.6177,-121.9166,74.8,62.49,77,75,12.66,broken clouds,2022-08-05 23:43:28
612,612,Vila,PT,42.0304,-8.1588,60.69,59.88,78,73,5.64,broken clouds,2022-08-05 23:46:41
613,613,Arica,CL,-18.475,-70.3042,60.35,59.23,82,100,3.44,overcast clouds,2022-08-05 23:46:41
614,614,Caxito,AO,-8.5785,13.6643,64.49,64.49,92,31,0.47,scattered clouds,2022-08-05 23:46:42
615,615,Xunchang,CN,28.4543,104.715,76.8,76.8,89,87,2.37,overcast clouds,2022-08-05 23:46:42
616,616,Zonguldak,TR,41.25,31.8333,61.34,61.34,97,28,2.17,scattered clouds,2022-08-05 23:46:43
617,617,San Jose,US,37.3394,-121.895,88.48,64.4,53,40,19.57,scattered clouds,2022-08-05 23:44:33
618,618,Khorol,UA,49.7837,33.2783,63.19,63.19,89,0,7.87,clear sky,2022-08-05 23:46:44
619,619,Yumen,CN,40.2833,97.2,77.05,77.05,31,94,15.3,overcast clouds,2022-08-05 23:46:44
620,620,Champerico,GT,14.3,-91.9167,86.54,86.54,77,72,9.1,broken clouds,2022-08-05 23:46:44
621,621,Tautira,PF,-17.7333,-149.15,76.08,76.08,82,94,27.18,moderate rain,2022-08-05 23:46:45
622,622,Acarau,BR,-2.8856,-40.12,78.12,78.12,83,6,16.33,clear sky,2022-08-05 23:46:45
623,623,Eureka,US,40.8021,-124.1637,80.67,65.01,77,34,5.99,scattered clouds,2022-08-05 23:43:17
624,624,Kavaratti,IN,10.5669,72.642,80.35,80.35,81,100,21.88,moderate rain,2022-08-05 23:46:46
625,625,Sand Springs,US,36.1398,-96.1089,98.71,94.71,47,0,9.22,clear sky,2022-08-05 23:45:03
626,626,Conversano,IT,40.9662,17.1148,80.55,69.62,41,0,2.26,clear sky,2022-08-05 23:46:47
627,627,Richards Bay,ZA,-28.783,32.0377,62.44,62.44,93,0,5.06,clear sky,2022-08-05 23:46:47
628,628,Tocopilla,CL,-22.092,-70.1979,59.79,59.79,66,49,2.35,scattered clouds,2022-08-05 23:46:47
629,629,Ihosy,MG,-22.4,46.1167,56.01,56.01,77,20,3.8,few clouds,2022-08-05 23:46:48
630,630,Sandwick,GB,60.0,-1.25,53.42,53.42,76,40,11.5,scattered clouds,2022-08-05 23:46:48
631,631,Husavik,IS,66.0449,-17.3389,49.1,49.1,77,14,0.58,few clouds,2022-08-05 23:46:49
632,632,Bajil,YE,15.0584,43.2851,86.85,86.85,59,99,3.74,overcast clouds,2022-08-05 23:46:49
633,633,Kununurra,AU,-15.7667,128.7333,76.98,76.98,38,76,6.91,broken clouds,2022-08-05 23:45:34
634,634,Ahipara,NZ,-35.1667,173.1667,60.87,60.87,66,69,7.0,broken clouds,2022-08-05 23:46:50
635,635,Talcahuano,CL,-36.7167,-73.1167,51.48,51.48,100,100,5.75,light intensity drizzle,2022-08-05 23:46:51
636,636,Bogatyye Saby,RU,56.0102,50.4483,67.17,67.17,66,86,2.68,overcast clouds,2022-08-05 23:46:51
637,637,Basco,PH,20.4487,121.9702,83.95,83.95,77,48,15.48,scattered clouds,2022-08-05 23:46:52
638,638,Hailar,CN,49.2,119.7,67.78,67.78,61,33,13.38,scattered clouds,2022-08-05 23:46:52
639,639,New Richmond,US,45.123,-92.5366,85.84,81.28,52,0,13.8,clear sky,2022-08-05 23:43:52
640,640,Ilave,PE,-16.0833,-69.6667,45.36,45.36,55,95,2.51,overcast clouds,2022-08-05 23:46:53
641,641,Marzuq,YE,14.4,46.4667,80.35,80.35,55,80,5.99,broken clouds,2022-08-05 23:47:53
642,642,Kapit,MY,2.0167,112.9333,73.04,73.04,99,100,2.24,light rain,2022-08-05 23:47:54
643,643,Hobyo,SO,5.3505,48.5268,75.7,75.7,84,87,25.77,overcast clouds,2022-08-05 23:47:54
644,644,Mangai,CD,-4.05,19.5333,77.74,77.74,43,72,1.19,broken clouds,2022-08-05 23:47:55
645,645,Sambava,MG,-14.2667,50.1667,64.24,64.24,87,14,8.28,few clouds,2022-08-05 23:47:55
646,646,Santa Isabel Do Rio Negro,BR,-0.4139,-65.0192,76.19,76.19,77,42,2.77,scattered clouds,2022-08-05 23:47:56
647,647,Villarrica,PY,-25.75,-56.4333,55.78,55.78,66,0,6.26,clear sky,2022-08-05 23:47:56
648,648,Antsohihy,MG,-14.8796,47.9875,62.6,62.6,71,0,4.74,clear sky,2022-08-05 23:47:57
649,649,Nemuro,JP,43.3236,145.575,59.34,59.34,77,100,7.36,overcast clouds,2022-08-05 23:47:57
650,650,Shar,KZ,49.5886,81.0453,55.56,55.56,54,2,5.93,clear sky,2022-08-05 23:47:57
651,651,Ville-Marie,CA,47.3335,-79.433,68.56,68.56,65,4,3.98,clear sky,2022-08-05 23:47:58
652,652,Alta Floresta,BR,-9.8756,-56.0861,78.35,78.35,37,23,4.07,few clouds,2022-08-05 23:47:59
653,653,Tibiri,NE,13.5627,7.0485,80.46,80.46,65,69,12.39,broken clouds,2022-08-05 23:47:59
654,654,Tupik,RU,54.4253,119.9327,60.73,60.73,70,91,2.37,overcast clouds,2022-08-05 23:47:59
655,655,Francisco Sa,BR,-16.4758,-43.4883,77.14,77.14,33,24,3.29,few clouds,2022-08-05 23:48:00
656,656,Kungsbacka,SE,57.4872,12.0761,62.08,53.74,70,0,18.01,clear sky,2022-08-05 23:48:00
657,657,Diu,IN,20.7141,70.9822,79.16,79.16,88,100,6.78,overcast clouds,2022-08-05 23:48:01
658,658,Rybachiy,RU,48.7073,44.7449,73.26,72.57,32,100,8.61,overcast clouds,2022-08-05 23:48:01
659,659,Takoradi,GH,4.8845,-1.7554,72.27,72.27,84,38,6.42,scattered clouds,2022-08-05 23:48:02
660,660,Leticia,CO,-4.2153,-69.9406,80.65,80.58,83,75,3.44,broken clouds,2022-08-05 23:48:02
